id,nome,inaug,lat,lon
1,"Oratório de Nossa Senhora Aparecida de Bonsucesso","Jan/1996",-22.865393,-43.254853
2,"Marco 100 anos de Ramos","Out/1986",-22.8531028,-43.2614332
17,"Adolfo Bergamini ","Out/1946",-22.9119411,-43.1751653
18,"Catulo da Paixão Cearense ","Jan/1940",-22.9119411,-43.1751653
19,"Evaristo de Morais ( desaparecido)","Jul/1942",-22.9119411,-43.1751653
20,"Mahatma Gandhi ","Fev/1965",-22.9121617,-43.1762046
21,"Girardet - desaparecido","Dez/1945",-22.9119411,-43.1751653
22,"Alberto Nepomuceno no Passeio Público","Abr/1935",-22.9137136,-43.1767548
23,"Castro Alves do Passeio Público","Set/1913",-22.9132919,-43.1763128
24,"Chiquinha Gonzaga no Passeio Público","Out/1942",-22.9134168,-43.1774497
25,"Ferreira de Araújo no Passeio Público","Ago/1912",-22.913711,-43.1769561
26,"Francisco Braga no Passeio Público ( desaparecido)","Nov/1952",-22.913711,-43.1769561
27,"Gonçalves Dias no Passeio Público","Jun/1901",-22.9137136,-43.1767548
28,"Irineu Marinho no Passeio Público","Mar/1937",-22.9131599,-43.1772132
29,"Mestre Valentim no Passeio Público ( reprodução)","Dez/2004",-22.9131342,-43.1770958
30,"Olavo Bilac no Passeio Público","Dez/1935",-22.9129431,-43.1766633
31,"Raymundo Corrêa no Passeio Público ( desaparecido)","Nov/1944",-22.9132256,-43.1764889
32,"Rodolfo Bernadelli no Passeio Público","Abr/1934",-22.9125871,-43.176523
33,"Paulo Silva no Passeio Público ( desparecido)","Jul/1969",-22.9137193,-43.1774099
34,"Pedro Américo no Passeio Público","Jan/1925",-22.9140638,-43.1762933
35,"Major Plácido de Castro no Passeio Público","Jan/1973",-22.9126679,-43.176283
36,"Marechal Floriano Peixoto ","Abr/1910",-22.9101486,-43.176075
37,"Victor Meirelles no Passeio Público","Nov/1925",-22.9137417,-43.1772696
39,"Francisco Serrador ","Ago/1944",-22.9113639,-43.1757647
40,"Getulio Vargas na Cinelândia","Ago/1962",-22.9109921,-43.1759181
41,"Juceslino Kubischek ","Nov/1983",-22.9107052,-43.1760106
42,"Paulo de Frontin na Cinelândia","Set/1925",-22.9114573,-43.1757271
43,"Villa Lobos","Abr/1960",-22.9089138,-43.1762048
44,"Princesa Isabel na Avenida Treze de Maio ( desaprecido)","Set/1996",-22.909404,-43.1767904
45,"Carlos Gomes na Cinelândia","Jan/1960",-22.9096151,-43.1765339
46,"General Santander ","Dez/1941",-22.9129047,-43.1742992
47,"Evandro Lins e Silva","Out/2007",-22.9124803,-43.1742838
48,"Marechal Deodoro da Fonseca","Nov/1937",-22.9140107,-43.1747018
49,"General Osório da Praça XV","Nov/1894",-22.9030346,-43.1744503
50,"João Candido","Nov/2008",-22.9021884,-43.1731541
51,"João VI","Jun/1965",-22.9023544,-43.1727947
52,"Paulo Sampaio ","Set/2002",-22.9057922,-43.1685091
53,"Atílio Correia Lima ","Jan/1994",-22.9057922,-43.1685091
54,"Marechal Bittencourt","Nov/1988",-22.9053928,-43.1690508
55,"Santos Dumont ","Out/1942",-22.911621,-43.1682107
56,"Buarque de Macedo","Mai/1938",-22.9105275,-43.1691185
57,"Teixeira de Freitas","Ago/1905",-22.9092116,-43.1695569
58,"Imperatriz Teresa Cristina ","Mar/2022",-22.9108196,-43.1714926
59,"Manuel Bandeira no Centro","Abr/2007",-22.9100063,-43.1721709
60,"Joaquim Nabuco","Mar/2011",-22.9100063,-43.1721709
61,"Machado de Assis ","Jun/1929",-22.910646,-43.1728122
62,"À Edson Luis ","Mar/2008",-22.9090811,-43.1716851
63,"Tiradentes","Mai/1926",-22.9042531,-43.1744892
65,"Barão do Rio Branco","Set/1943",-22.9068559,-43.1729258
66,"Benjamim Constant","Jul/1926",-22.9065115,-43.18853
67,"Sinhô","Ago/1970",-22.9059339,-43.1901802
68,"Vicente Celestino","Ago/1970",-22.9064864,-43.1898684
69,"Candido de Oliveira ( desaparecido)","Jun/1991",-22.9073659,-43.1904433
70,"Sebastião Leme","Out/1951",-22.9077046,-43.1941086
71,"Modestino Kanto ","Set/1969",-22.9071588,-43.193359
72,"Zumbi dos Palmares","Nov/1986",-22.9070093,-43.196244
73,"Ana Néri","Dez/1956",-22.9116486,-43.1881644
74,"Saturnino Soares Meirelles","",-22.9119365,-43.1887043
75,"João Paulo II","Out/1997",-22.9095756,-43.1811314
76,"Pedro I","Mar/1862",-22.9065327,-43.182986
77,"João Caetano","Mai/1891",-22.9064745,-43.1822315
78,"José Bonifácio","Set/1872",-22.9049417,-43.1805555
79,"Monsenhor Mathathias Gomes ","Jul/2002",-22.9075127,-43.1816077
80,"João Calvino ","Jul/2009",-22.9075,-43.1813563
81,"Pierre Richier e Guillaume Chartier","Mar/2007",-22.90751,-43.181356
82,"Ashbel Green Simenton e Helen. ","Ago/2009",-22.9075127,-43.1816077
83,"Barão de Mauá","Abr/1910",-22.8960957,-43.180201
84,"Almirante Pedro Max ","Nov/1998",-22.8960957,-43.180201
85,"Barão de Ladário ","Dez/1989",-22.8990329,-43.1767519
86,"Conde Cunha","Jun/1949",,
87,"Marcílio Dias","Jun/1948",-22.9070093,-43.196244
88,"Pereira Passos ","Nov/1914",-22.9012511,-43.179095
89,"Pixinguinha","Abr/1995",-22.9044496,-43.1768802
90,"Bernardo Pereira de Vasconcelos","Dez/1966",-22.9018902,-43.1844403
91,"Marechal Duque de Caxias ","Ago/1899",-22.9042759,-43.1891264
92,"Cristiano Ottoni ","Mar/1908",-22.9041532,-43.1907208
93,"João Goulart","Mar/2002",-22.9041532,-43.1907208
94,"Antonio Januzzi ","Jun/2012",-22.9067826,-43.1973166
95,"José do Patrocínio","Out/1953",-22.9090638,-43.1753004
96,"Lima Barreto do Centro","Mar/2012",-22.9111016,-43.1826368
97,"Marquês do Lavradio","Set/2012",-22.9090073,-43.1833596
98,"Luis de Camões ","",-22.9055189,-43.1821352
99,"À Melvin Jones e Armando Farjado","Abr/1977",-22.9062264,-43.1767306
100,"Gabriel Habib ","Nov/2014",-22.9052872,-43.185118
101,"Rui Barbosa ","Jan/1966",-22.9069145,-43.1715492
102,"Grandjean de Montiny","Out/1910",-22.900622,-43.176356
103,"Julio de Castilhos","Nov/2011",-22.9055225,-43.1907273
104,"Arcos da Lapa ou Aqueduto da Carioca","Jan/1750",-22.9133965,-43.1793505
105,"Lampadário da Lapa","Nov/1906",-22.9143351,-43.1780163
106,"Escadaria de Selarón","Jan/1994",-22.9152342,-43.1790538
107,"Painel dos Arcos da Lapa ","",-22.9138924,-43.1801389
108,"Painel da Lapa ","",-22.9138924,-43.1801389
109,"Painel Copa 2014","Jan/2014",-22.9152342,-43.1790538
110,"Painel Viver na Favela","",-22.9136685,-43.1800536
111,"Painel Propaganda de Selarón","Jan/2004",-22.9136685,-43.1800536
112,"Painel Gravidas de Selarón","",-22.9136685,-43.1800536
113,"Portão Monumental do Passeio Público","Jan/1783",-22.9130414,-43.1772381
114,"Pirâmide - Ao Amor ao Público ","Jan/1806",-22.9136656,-43.1759635
115,"Pirâmide - Á Saudade do Rio","Jan/1806",-22.9136656,-43.1759635
116,"Inverno do Passeio Público","Set/2000",-22.9133127,-43.1763977
117,"Verão do Passeio Público","Jan/1862",-22.9129741,-43.1770187
118,"Outono do Passeio Público - depósito","Jan/1862",-22.9132291,-43.177204
119,"Primavera do Passeio Público","Jan/1862",-22.913654,-43.1766988
120,"Quiosque do Passeio Público","",-22.9134604,-43.176297
121,"Guarda-corpo de Galhos de Àrvore","Jan/1862",-22.9137854,-43.176044
122,"Banco do Recanto Glaziou ","Jan/1862",-22.9127565,-43.1764196
123,"Gradil do Passeio Público","Jan/1968",-22.9127555,-43.1761401
124,"Painel de Santa Bárbara","Jan/1964",-22.9089138,-43.1762048
125,"Ao Nunca Mais ","Abr/2014",-22.9112566,-43.1758078
126,"Pax (Paz) ","",-22.9099245,-43.1763903
127,"Trabalho (Labor)","",-22.9099245,-43.1763903
128,"Crianças com a Concha ","Jan/1928",-22.9119106,-43.1750856
129,"Crianças com o Pássaro","Jan/1928",-22.9119106,-43.1750856
130,"Crianças com a Tocha","Jan/1928",-22.9119106,-43.1750856
131,"Crianças com flores","Jan/1928",-22.9119106,-43.1750856
132,"Obelisco da Avenida Rio Branco","Nov/1906",-22.9130043,-43.1747473
133,"Arco dos Teles ","",-22.9027825,-43.1745887
134,"Cais do Chafariz da Praça XV de Novembro","",-22.9023098,-43.1737034
135,"Âncora ","Mai/2012",-22.9124214,-43.1693138
136,"Piso de Pé de Moleque da Ladeira da Misericórdia","Jan/1840",-22.9061968,-43.170164
137,"A Justiça","Jan/1863",-22.9064924,-43.1824778
140,"A Fidelidade ","Jan/1863",-22.9064924,-43.1824778
141,"A União","Jan/1863",-22.9064924,-43.1824778
142,"A Liberdade","Jan/1863",-22.9064924,-43.1824778
145,"Grande Quadrado Vermelho ","Set/1996",-22.9074447,-43.1809263
146,"Portão do Campo de Santana","Set/1880",-22.9048704,-43.1894496
147,"Luta Desigual ","Set/1880",-22.9075507,-43.1892197
150,"Verão do Campo de Santana","Jan/1906",-22.9065612,-43.1881238
151,"Outono do Campo de Santana","Jan/1914",-22.9066858,-43.1880704
152,"Primavera do Campo de Santana","Jan/1914",-22.9066996,-43.1890224
153,"Guaritas do Campo de Santana","Jan/1906",-22.905127,-43.1892942
154,"Gradil do Campo de Santana","Jan/1968",-22.9050387,-43.1893203
155,"Guarda-corpo I do Campo de Santana","Set/1880",-22.9054641,-43.1892988
156,"Guarda-corpo II do Campo de Santana","Set/1880",-22.9079801,-43.1881185
157,"Bebedouro Tronco de Árvore do Campo de Santana","Set/1880",-22.9071468,-43.1898124
158,"O Mascate do Saara","Nov/1991",-22.9053822,-43.1849111
159,"Relógio do Largo da Carioca","Jun/1909",-22.9063893,-43.1781415
160,"O Passante","Fev/1996",-22.9083281,-43.17774
161,"Brasil","Out/2004",-22.9089781,-43.179683
162,"Piso de Paralelepípedo do Beco dos Braganças","",-22.8987899,-43.1779889
163,"Escultura Itamarati I ","",-22.9030304,-43.1875333
164,"Escultura Itamarati II","",-22.9030304,-43.1875333
165,"Solar Windsurfer, A Leveza da Pedra","Out/2001",-22.9103746,-43.1673523
166,"Marco aos Aviadores ","",-22.9111594,-43.1671114
167,"À Paz, Ampulheta","Jun/1992",-22.9106088,-43.1685749
168,"Escultura para o Rio - Pedras Portuguesas","Jan/1997",-22.9111895,-43.1713323
169,"Amizade entre os Povos","Jul/1931",-22.9122058,-43.1732543
170,"Coluna Média em Cantoneira ","Jan/1977",-22.9092439,-43.1696687
171,"Marco Cápsula do Tempo ","Ago/1969",-22.9093884,-43.1697296
172,"Ritmo","Jun/1985",-22.909904,-43.1721772
173,"Terra ( desaparecido)","Jan/1984",-22.90412,-43.1747159
174,"Encontro, no Centro","Jan/1985",-22.9040276,-43.1756872
175,"Vasos da Avenida Presidente Vargas","Jan/1965",-22.9025711,-43.1832433
176,"Guarda-corpo da Avenida Presidente Vargas","Dez/1904",-22.9101268,-43.2058624
177,"Embocadura do Tunel João Ricardo","Dez/1920",-22.9006118,-43.193082
178,"Pé a Pé ","Jan/2004",-22.9035886,-43.1906709
179,"Pequeno Jornaleiro ","Jun/1933",-22.9067928,-43.1973384
180,"Painel do Edifício Andorinha ","Jan/1934",-22.9088552,-43.1835971
181,"Juventude ","Jan/1947",-22.909717,-43.1740725
182,"Tartaruga","",-22.9013886,-43.175858
184,"Elevando-se ","Jan/2005",-22.9013886,-43.175858
185,"Oratório de Nossa Senhora do Cabo Boa Esperança ","Jan/1763",-22.9035329,-43.1760087
186,"Piso de Macadame do Beco dos Barbeiros","",-22.9028599,-43.1754662
187,"Piso de Constaneira do Beco das Cancelas","",-22.9020119,-43.176999
188,"Marco Baha-i","Jul/1981",-22.8959385,-43.1812125
189,"Banco Gota d'Água","Out/2015",-22.9055555,-43.1704293
190,"Oratório de Nossa Senhora de Fátima do Bairro de Fátima","Out/1958",-22.9179142,-43.1883952
191,"Portal da Casa de Correção","Jul/1850",-22.9137484,-43.2011551
192,"Pescador Napolitano","Jan/1906",-22.9064598,-43.1899272
194,"Chafariz do Riachuelo","Jan/1817",-22.9149532,-43.1863947
195,"Fonte dos Jacarés (Fonte dos Amores) ","Jan/1783",-22.9137854,-43.176044
196,"Mural da Fonte dos Amores","Jan/1783",-22.9137854,-43.176044
197,"Fonte do Menino (reprodução) - depósito","Dez/2004",-22.9065697,-43.1968354
198,"Fonte do Tritão ( reprodução)","Dez/2004",-22.9137649,-43.1767648
199,"Cascata de Rocaille do Passeio Público","Jan/1862",-22.9129861,-43.1765087
200,"Lago do Passeio Público","Jan/1862",-22.9137138,-43.1763318
201,"Chafariz Monumental ","Jan/1880",-22.911848,-43.1753428
202,"Chafariz do BNDES","Jan/1981",-22.9085697,-43.1784653
203,"Cascata do Campo de Santana","Set/1880",-22.9074113,-43.1894181
204,"Gruta do Campo de Santana","Jul/1880",-22.9074113,-43.1894181
205,"Cascata dos Deuses - Rio Amazonas e Uruguai","Jan/1948",-22.9068304,-43.1729054
206,"Fonte Amor à Lira","Jun/1968",-22.906388,-43.1780116
207,"Chafariz Dança das Águas","Set/1964",-22.910776,-43.2065368
208,"Chafariz do Lagarto","Jan/1786",-22.9120252,-43.1952142
209,"Chafariz Paulo Fernandes","Jan/1816",-22.9115308,-43.1945616
210,"Chafariz Oferenda ou Mulher com Ânfora","Jan/1934",-22.9005335,-43.1768077
211,"Chafariz do Mestre Valentim ou Chafariz da Pirâmide","Abr/1789",-22.9024819,-43.1736679
212,"Chafariz das Três Velas","Jul/1992",-22.9065697,-43.1968354
213,"Fonte da Sereia ( réplica)","Jan/2006",-22.9081131,-43.1891171
214,"Fonte Jovem Europa","Jan/1906",-22.9063904,-43.1881627
215,"Inverno do Campo de Santana","Jan/1906",-22.906843,-43.1888948
216,"Vênus Reclinada","Jan/1991",-22.9013886,-43.175858
217,"Lago do Jardim da Petrobras","Jan/1968",-22.9094343,-43.1785828
218,"Lago do Campo de Santana","Set/1880",-22.9075885,-43.188024
219,"Chafariz da antiga sede BNH, atual Caixa Economica","Jan/1973",-22.9087546,-43.1803899
220,"Grande Arco do Sambodromo","Mar/1984",-22.9134649,-43.1962472
221,"Amurada do Catumbi","Jan/1816",-22.9117588,-43.1948626
222,"Escultura Modulo 6.5 - Monumento a Integração dos Povos da América ","Mai/1997",-22.9103644,-43.2052552
223,"Mastro da Praça da Bandeira","Jan/1935",-22.9109414,-43.2141505
224,"Portal do Matadouro ","Jan/1853",-22.9108644,-43.2132586
225,"Descobrimento do Brasil - À Pedro Àlvares Cabral, Pedro Vaz Caminha e Frei Henrique do Coimbra ","Mai/1900",-22.9202612,-43.1761148
226,"Eduardo Tapajós ( desaparecido)","Mai/2000",-22.9230746,-43.1723698
227,"Afonso Celso","Mar/1960",-22.9149362,-43.1757546
228,"Alberto de Oliviera","Abr/1928",-22.920732,-43.1746418
229,"Alfredo Agache","Jul/1969",-22.9172847,-43.1759463
230,"Almirante Barroso","Nov/1909",-22.9185545,-43.1757581
231,"Baden Powell","Jul/1960",,
232,"Cândido Mendes","Mar/1982",-22.9149978,-43.1754865
233,"Cardeal Arcoverde","Jul/1939",-22.9210361,-43.1768286
234,"Carmem Gomes","Mar/1958",-22.916683,-43.1758761
235,"Clóvis Beviláqua","Dez/1943",-22.9149128,-43.1756288
236,"Getulio Vargas ( Getulão )","Ago/2004",-22.9214288,-43.1734074
237,"Lazar Segall","Set/1964",-22.9220889,-43.1727406
238,"Pereira Carneiro","Jan/1962",-22.9206872,-43.1743128
239,"Teixeira Mendes ","Nov/1977",-22.9206872,-43.1743128
240,"Reis e Silva ","Dez/1958",-22.9151315,-43.1756671
241,"Varnhagem","Out/1938",-22.9173289,-43.1759357
242,"Vera Janacópulos","Dez/1958",-22.916683,-43.1758761
243,"Relógio da Glória","Abr/1905",-22.9196698,-43.1767844
244,"Piso de Pedra Portuguesa de Rosa dos Ventos da Glória","Jan/2009",-22.9199019,-43.1769224
245,"Amurada da Glória","",-22.918782,-43.1768389
246,"Abertura dos Portos","Jan/1908",-22.9222642,-43.1726345
247,"Amurada do Hotel Glória","Jul/1908",-22.9222146,-43.1724718
248,"Portão da Praça Paris","Jan/1992",-22.9172484,-43.176391
249,"Primavera da Praça Paris","Jan/1929",-22.9151454,-43.1755404
250,"Verão da Praça Paris","Jan/1929",-22.9166947,-43.175759
251,"Inverno da Praça Paris","Jan/1929",-22.9166769,-43.1759531
252,"Outono da Praça Paris","Jan/1929",-22.9151205,-43.1757731
253,"Felino de Pé","Jan/1929",-22.9163366,-43.1758382
254,"Felino Deitado","Jan/1929",-22.9154769,-43.1756772
255,"Pedra Fundamental - Monumento ao Almirante Barroso","Jun/1908",-22.9185545,-43.1757581
256,"Amurada do Outeiro da Glória","Jan/1959",-22.9205917,-43.1754419
257,"Plano inclinado do Outeiro da Glória","Fev/1944",-22.9217808,-43.1752466
258,"São Sebastião","Ago/1965",-22.9206872,-43.1743128
259,"São Francisco de Assis e Santa Clara","Out/1927",-22.9213639,-43.1734884
260,"Escoteiro ","Dez/1923",-22.921234,-43.1736505
261,"Obelisco do Memorial Getulio Vargas ","Ago/2004",-22.9212989,-43.1735695
262,"Piso de Pé de Moleque na Rua Orlando Rangel ","",-22.923989,-43.1757584
263,"Chafariz da Glória","Jan/1772",-22.9184257,-43.1771039
264,"Chafariz dos Golfinhos","Jan/1929",-22.9160074,-43.1759671
266,"Chafariz de São Sebastião","Jul/1972",-22.9213639,-43.1734884
267,"Lago do Memorial a Getulio Vargas","Ago/2004",-22.9213639,-43.1734884
268,"Cuauhtemoc ","Set/1922",-22.9372812,-43.1730611
269,"O'Higgins","Mar/1967",-22.9369399,-43.1734655
270,"Emílio de Menezes ","Ago/1950",-22.9303875,-43.1784601
271,"Gago Coutinho ","Jan/1969",-22.93105,-43.1794419
272,"Lorenzo Fernandes ","Ago/1949",-22.9309478,-43.1794647
273,"Alfredo Gomes","Set/1937",-22.9312377,-43.1794
274,"José de Alencar","Mai/1897",-22.9325975,-43.1775974
275,"Paineis Metálicos de Animais","Mar/1996",-22.9335874,-43.1775003
276,"Marco ao Rio Carioca ","Mar/1996",-22.9329027,-43.1773299
277,"Nossa Senhora da Imaculada Conceição do Largo do Machado","Dez/1954",-22.9304186,-43.1785621
278,"Coreto da Praça São Salvador","Set/1995",-22.9338681,-43.1804842
279,"Chafariz 'A Fonte'","Jan/1903",-22.9341587,-43.1803326
280,"Chafariz do Largo do Machado","Jan/1967",-22.9304186,-43.1785621
281,"Almirante Tamandaré","Dez/1937",-22.9414676,-43.1774591
282,"Carlos Chagas","Dez/1974",-22.906624,-43.2007664
283,"Oswaldo Cruz em Botafogo","Dez/1972",-22.941589,-43.1770629
284,"Bartolomeu Mitre ","Ago/1961",-22.9428531,-43.1807615
285,"Pablo Neruba ( desaparecido)","Nov/2004",-22.9427818,-43.1806966
286,"Juruena de Matos ","Jun/1967",-22.9482754,-43.182365
287,"Carvalho Brito","Jan/1955",-22.9479693,-43.1824868
288,"Francisco Morazan","Nov/1956",-22.9496267,-43.1809877
289,"Bocage","Dez/1965",-22.9421948,-43.1823222
290,"General Artigas","Set/1979",-22.9418039,-43.182243
291,"Pedro Juan Caballero ","Abr/1959",-22.94978,-43.1804029
292,"Yhitzak Rabin ","Set/2000",-22.9514848,-43.1787674
293,"À Eça de Queiroz ","Fev/1923",-22.9580386,-43.1774031
294,"Simón Bolívar ","Out/1978",-22.9557549,-43.1775749
295,"Frederico Ozanam ","Ago/1972",-22.9528505,-43.176184
296,"Marechal Ramón Castilho","Dez/1988",-22.956468,-43.176032
297,"Stuart Angel","Ago/2015",-22.9514374,-43.1750941
298,"Minerva no Palácio da Cidade","Dez/2000",-22.9510716,-43.1938886
299,"Ceres no Palácio da Cidade","Dez/2000",-22.9510716,-43.1938886
300,"Mercúrio no Palácio da Cidade","Dez/2000",-22.9510716,-43.1938886
301,"Marte no Palácio da Cidade","Dez/2000",-22.9510716,-43.1938886
302,"Chafariz do Vaso na Praia de Botafogo","Jan/1987",-22.9417366,-43.1799523
303,"Crepúsculo ","Jan/1906",-22.94237,-43.1803717
304,"Poesia em Ruínas ","Jan/1904",-22.94237,-43.1803717
305,"Maternidade","Jan/1952",-22.9432666,-43.1815827
306,"Amor Materno","Jan/1971",-22.9425809,-43.1740014
307,"Mural Corcovado ","Jan/2000",-22.9491627,-43.1806221
308,"Amurada da Avenida Lauro Sodré","Jan/1959",-22.9573498,-43.1775392
310,"Chafariz do Almirante Tamandaré","",-22.9414676,-43.1774591
311,"Chafariz da Praça Nicarágua ","Jan/1906",-22.9418436,-43.1773704
312,"Chafariz Estrela","Jun/1929",-22.9432488,-43.1810646
313,"Fonte Ramos Pinto ","Fev/1906",-22.9585127,-43.1772141
314,"Abrahan Medina ","Jan/1996",-22.985733,-43.1888515
315,"Embocadura do Túnel Novo","Jan/1951",-22.9585127,-43.1772141
316,"Ary Barroso I ","Abr/1974",-22.9645475,-43.1722902
317,"Braguinha","Fev/2004",-22.9617075,-43.1756946
318,"Carlos Drummond de Andrade","Out/2002",-22.9844361,-43.1891361
319,"Dorival Caymmi ","Dez/2008",-22.9858274,-43.1888194
320,"Ibrahim Sued ","Set/2004",-22.967595,-43.1786041
321,"Marechal Castelo Branco","Mai/1974",-22.9623683,-43.1653128
322,"Almirante Júlio de Noronha","Jun/1980",-22.9623683,-43.1653128
323,"Coelho Cintra","Jan/1958",-22.9618369,-43.1750678
324,"Princesa Isabel de Avenida Princesa Isabel","Mai/2003",-22.9651773,-43.1733377
325,"Rei Alberto I ","Set/1922",-22.9853739,-43.1924953
326,"Rodolfo e Henrique Bernadelli, os Irmãos Bernadelli ","Set/1952",-22.96598,-43.1754945
327,"Sarah Kubischek ( desaparecida)","Jun/1999",-22.9796065,-43.1910441
328,"Serzedelo Correia ","Nov/1910",-22.9687313,-43.1839672,
329,"Tenente Siqueira Campos - Ao Levante dos 18 do Forte.","Jul/1974",-22.9709691,-43.1833224
330,"Siqueira Campos no Forte de Copacabana","Jul/1937",-22.9865518,-43.18798
331,"Visconde do Rio Branco","Mai/1902",,
332,"Comendador Peixoto ","Dez/1944",-22.9674093,-43.1896705
333,"Edmundo Bittencourt","Mai/1951",-22.9665292,-43.1903542
334,"Einstein","Jul/1979",-22.9670196,-43.1895441
335,"Arcos do Leme","Jan/1779",-22.960829,-43.1787305
336,"Piso de Pedra Portuguesa Mosaico de Burle Marx de Copacabana","Jan/1971",-22.9652669,-43.1739101
337,"Calçada da Fama ","Set/2003",-22.9660791,-43.1757018
338,"Vitória","Abr/1992",-22.9660791,-43.1757018
339,"São Francisco de Assis ","Ago/2013",-22.9660791,-43.1757018
340,"Banco de Mosaico I","Jan/2001",-22.9684518,-43.1796113
341,"Banco de Mosaico II","Jan/2001",-22.9686506,,-43.1799369
342,"Banco de Mosaico III","Jan/2001",-22.9688096,-43.1801974
343,"Oratório de Nossa Senhora de Fátima do Bairro Peixoto","Jan/2008",-22.9674093,-43.1896705
344,"Ao Levante do Forte","Jul/1944",-22.9865514,-43.1879315
345,"Oratório à São Pedro de Copacabana","Dez/2009",-22.9859367,-43.1887832
346,"Iemanjá - Serena, Dama do Mar ","Dez/1988",-22.9854498,-43.188948
347,"Marco da Inauguração da Duplicação de Copacabana","Mar/1971",-22.9850722,-43.1890765
348,"Escultura Sem Nome, a Baleia","Jan/1988",-22.962494,-43.1655975
349,"Obelisco do Alargamento de Copacabana ","Jul/1919",-22.9623683,-43.1653128
350,"Quartzo Rosa","Jan/1998",-22.9649633,,-43.1801527
351,"Menorá","Jan/1995",-22.9649633,-43.1801527
352,"Painel dos Direitos Humanos em Copacabana","Dez/2002",-22.9676838,-43.1872279
354,"Cogumelos","Jan/1974",-22.9832874,-43.192088
355,"Cogumelos II","Jan/1974",-22.9832874,-43.192088
356,"Relógio do Parque Peter Pan","Jan/1974",-22.9832874,-43.192088
357,"Oratório de Nossa Senhora das Graças de Copacabana","Abr/1973",-22.9779268,-43.1928786
358,"Painel do Frescobol ","Jan/1998",-22.9796065,-43.1910441
359,"Embocadura do Túnel Aloar Prata, Túnel Velho","Jan/1928",-22.9615826,-43.1910399
360,"Chafarizes da Avenida Princesa Isabel","Mai/1996",-22.9631204,-43.174531
361,"Chafariz do Bairro Peixoto","Ago/1965",-22.9674093,-43.1896705
362,"General Osório em Ipanema","Mai/2002",-22.9846383,-43.1979334
363,"À Millôr Fernandes","Mai/2013",-22.9899039,-43.1914569
364,"Pilsudski ","Dez/1967",-22.9869301,-43.1988272
365,"Tom Jobim","Dez/2014",-22.9878187,-43.1944264
366,"Luar do Sertão, conhecida como Jaguar","Dez/1948",-22.9846733,-43.1972236
367,"A Menina dos Balões Encantados ","Out/2007",-22.9842363,-43.2053417
368,"Caramanchão da Praça Nossa Senhora da Paz","Jan/1992",-22.9837398,-43.2049451
369,"Primavera da Praça Nossa Senhora da Paz","Mai/1989",-22.9837398,-43.2049451
370,"Oratório do Sagrado Coração de Maria e de Jesus.","Nov/2004",-22.9880297,-43.1923323
371,"Santa Sara","Mai/2002",-22.9888096,-43.191583
372,"Garota de Ipanema ","Jan/2011",-22.9884811,-43.1919982
373,"Quadrado em Torção no Espaço ","Jan/1985",-22.9867849,-43.1992605
374,"Chafariz das Saracuras","Jan/1795",-22.9846733,-43.1972236
375,"Lago da Praça Nossa Senhora da Paz","Mai/1992",-22.9837398,-43.2049451
376,"Marco da Igreja Nossa Senhora da Paz","Set/1995",-22.9842363,-43.2053417
377,"Mario Pedrosa","Jan/1984",-22.9842363,-22.9842363
378,"Pinheiro Machado","Jan/1931",-22.9841828,-43.2059628
379,"Rubén Dario ","Jan/1956",-22.9885742,-43.2280441
380,"Zózimo Barroso do Amaral ","Nov/2001",-22.9884362,-43.2273224
381,"Almirante Saldanha da Gama ","Abr/1946",-22.9852252,-43.2150875
382,"Afrânio de Melo Franco","Out/2010",-22.9828266,-43.2179217
383,"Aloysio Maria Teixeira ","Out/2013",-22.9832071,-43.2280752
384,"Othon Xavier de Brito ","Mar/1957",-22.9882698,-43.2279353
385,"À Vieira Souto e Paulo de Frontin","Ago/1949",-22.9862228,-43.2158485
386,"Escultura Oscar Nieweyer I","Mar/2002",-22.989442,-43.2287399
387,"O Trio","Out/2000",-22.989442,-43.2287399
388,"Marco Memorial às Vítimas do Vôo AF 447 ","Set/2009",-22.989442,-43.2287399
389,"Guarda-corpo do Canal da Avenida Visconde Albuquerque","Jan/1942",-22.9847989,-43.2292798
390,"Comporta do Canal do Leblon","Jan/1922",-22.9879921,-43.2284968
391,"Banco do Canal da Avenida Visconde Albuquerque","Jan/1942",-22.9883539,-43.2281916
392,"O Corneteiro","Abr/2004",-22.9840218,-43.2092142
394,"Escultura Sem Título, conhecida como Estrêla","Jun/1996",-22.9885533,-43.2275781
395,"Chanuká ","Jan/2008",-22.9886022,-43.2276672
396,"Marco da Inauguração da Murada do Leblon","Out/1936",-22.988656,-43.227745
397,"Marco da Reinauguração do Alargamento da Avenida Nieweyer","Set/1922",-22.989138,-43.2278467
398,"Painel de Chica Granchi","Jan/1996",-22.9921662,-43.2338419
399,"Marco da Abertura da Avenida Nieweyer","Out/1916",-22.989138,-43.2278467
400,"Painel dos Direitos Humanos na Nieweyer","Jan/2001",-22.9947753,,-43.2345342
401,"Mulher e o Felino ","",-22.982413,-43.2140066
403,"Marco da Inauguração do Canal do Jardim de Alá","Jan/1922",-22.982413,-43.2140066
404,"Proteção, o Cão e a Criança","Jan/1906",-22.982413,,-43.2140066
405,"Deck do Jardim de Alá","Jan/1938",-22.9829743,-43.2142102
407,"Guarda-corpo do Jardim de Alá","",-22.9847613,-43.2151784
409,"Obelisco de Ipanema","Ago/1996",-22.9837493,-43.2139005
410,"Chafariz do Jardim de Alá","Dez/2003",-22.9846732,-43.2148574
411,"Treliça do Jardim de Alá","Jan/1938",-22.9846732,-43.2148574
412,"Ana Carolina","Jan/2001",-22.9331837,-43.1849705
413,"Del Prete","Nov/1999",-22.9330908,-43.1845779
415,"Retângulo Vazado ","Set/1996",-22.9060513,-43.181959
416,"Portão do Parque Guinle","",-22.9316085,-43.1824686
417,"Grifo do Parque Guinle","",-22.9315142,-43.1824265
418,"Esfinge Mitológica do Parque Guinle","",-22.9315142,-43.1824265
419,"Vaso do Parque Guinle","Jan/1965",-22.9314294,-43.1825106
420,"Casa dos Pássaros ","",-22.9309927,-43.1828792
421,"Guarda-corpo no Parque Guinle","",-22.9303362,-43.1840198
422,"Cascata do Parque Guinle","",-22.9303362,-43.1840198
423,"Banco do Largo do Boticário","",-22.9395493,-43.2014158
424,"Piso de Pé de Moleque no Largo do Boticário","",-22.939855,-43.2013375
425,"Piso no Largo Professor Silva Melo","Fev/1975",-22.9398627,-43.2018458
426,"Piso de Pé de Moleque da Ladeira Cerra Corá","",-22.940294,-43.2001072
427,"Caramanchão da Praça Del Prete","Nov/1999",-22.9331515,-43.1843104
428,"Portal da Praça Del Prete","Nov/1999",-22.9331507,-43.1844136
429,"Lago do Parque Guinle ","",-22.9310508,-43.1828319
430,"Chafariz Concha ","Set/1965",-22.9381691,-43.1906995
431,"Bica da Rainha","Jan/1845",-22.940563,-43.1972203
432,"Fonte do Largo do Boticário ","Jan/1930",-22.9395755,-43.2014088
433,"Chafariz da Praça Professor Silva Mello","Fev/1975",-22.9398178,-43.2019304
434,"À Nijiski","Nov/1992",-22.9723448,-43.2028562
435,"Marcos Tamoio ","Set/1981",-22.972386,-43.2029359
436,"San Martin","Mar/1972",-22.9752392,-43.200364
437,"João Pessoa","Jul/1937",-22.9767349,-43.1993368
438,"Irmãos André e Antônio Rebouças ","Mai/2014",-22.962765,-43.2045791
439,"Clarisse Índio do Brasil ","Jan/1992",-22.9535532,-43.1968612
440,"J.Carlos","Jun/1961",-22.9604587,-43.203308
441,"Manuel Madruga","Jul/1958",-22.9605414,-43.2037342
442,"Quintino Bocaiúva ","Nov/1944",-22.9610274,-43.2031116
443,"Fernando Baptista Gonçalves","Jan/2009",-22.9558313,-43.1981995
444,"À Victor Assis Brasil ","Out/2003",-22.9722268,-43.2168213
445,"Acoplamento ","Mar/1979",-22.9725107,-43.2028513
446,"Medida do Tempo, conhecida como Ampulheta","Ago/1986",-22.9725107,-43.2028513
447,"Atleta ","Jan/1987",-22.9725107,-43.2028513
448,"Compressão ","Mar/1979",-22.9725107,-43.2028513
449,"Construção ","Mar/1979",-22.9725107,-43.2028513
450,"Cosmo I ","Mar/1979",-22.9725107,-43.2028513
451,"Diana a Caçadora ","Jan/1987",-22.9725107,-43.2028513
452,"Encontro do Parque da Catacumba","Jan/1979",-22.9725107,-43.2028513
453,"Goleiro ","Nov/2011",-22.9725107,-43.2028513
454,"Estrutura ","Mar/1979",-22.9725107,-43.2028513
455,"Estrutura em diagonal ou Flor de Cactos","Mar/1979",-22.9725107,-43.2028513
456,"Evangelista Mateus ","Mar/1979",-22.9725107,-43.2028513
457,"Evolução ","Mar/1979",-22.9725107,-43.2028513
458,"Flora","Abr/1988",-22.9725107,-43.2028513
459,"Fruto do Espaço ","Jan/1980",-22.9725107,-43.2028513
460,"Guardião ","Abr/1988",-22.9725107,-43.2028513
461,"Homem Sentado.","Mar/1979",-22.9725107,-43.2028513
462,"Índio Lutando com Felino ","Jan/1906",-22.9725107,-43.2028513
463,"Lua","Jan/1985",-22.9725107,-43.2028513
464,"Iansã ","Mar/1979",-22.9725107,-43.2028513
465,"Incerteza ","Mar/1979",-22.9725107,-43.2028513
466,"Maternidade II","Mar/1979",-22.9725107,,-43.2028513
467,"Oxossi ","Mar/1979",-22.9725107,-43.2028513
468,"Prometeu ","Jan/1988",-22.9725107,-43.2028513
469,"Príncipe dos Bosques ","Mar/1979",-22.9725107,-43.2028513
470,"Raízes - Amazonas ","Jan/1990",-22.9725107,-43.2028513
471,"Sofia ","Mar/1979",-22.9725107,-43.2028513
472,"São Francisco de Assis da Catacumba","Mar/1979",-22.9725107,-43.2028513
473,"Oratório de Santa Bárbara","",-22.9305839,-43.1860972
474,"Balões ou Ritual do Vento","Set/2002",-22.9622643,-43.2045413
475,"Curumim","Mar/1979",-22.9632571,-43.2097131
476,"À Gaudi ","Fev/2014",-22.9763856,-43.1999575
477,"Banco Namoradeira","",-22.970746,-43.2070875
478,"Marco da Imigração Japonesa","Jun/2008",-22.974456,-43.200971
479,"Sagrado Coração de Jesus ","",-22.9620994,-43.2038849
480,"Vaso da Praça José Acioli","",-22.9806502,-43.2066739
481,"Lagoa Solidária","Set/2000",-22.9767754,-43.2191189
482,"Oratório de Nossa Senhora de Fátima de Gávea","Mar/1994",-22.9785779,-43.2234163
483,"À Tom Jobim, O Estudante","Fev/2002",-22.9602718,-43.2120361
484,"Guarda-corpo da Rua Lineu de Paula Machado","",-22.9647339,-43.2166042
485,"Fonte Harmonia","Nov/1970",-22.9536396,-43.1969072
486,"Chafariz da Praça Santos Dumont","Ago/1973",-22.9740541,-43.2260712
487,"Ponte do Parque da Cidade","",-22.9799141,-43.2418108
488,"Fonte Wallace do Parque da Cidade","",-22.9799141,-43.2418108
489,"Fonte do Ìndio do Parque da Cidade","",-22.9799141,-43.2418108
491,"Cascata e Piscina Marajoara do Parque da Cidade","",-22.9799141,-43.2418108
493,"Portão do Parque da Cidade","",-22.9799141,-43.2418108
494,"Banco Marajoara ","",-22.9799141,-43.2418108
495,"Canhão do Parque da Cidade","",-22.9799141,-43.2418108
496,"Vaso do Parque da Cidade","",-22.9799141,-43.2418108
497,"Duplo Totem","Jan/1995",-22.9799141,-43.2418108
498,"Leão em Totem","",-22.9799141,-43.2418108
499,"Roda Grande","Jan/1995",-22.9799141,-43.2418108
500,"Roda Pequena","Jan/1995",-22.9799141,-43.2418108
501,"Painel dos Direitos Humanos na Gávea","Jan/2001",-22.9821403,-43.2410037
502,"Clarice Lispector","Mai/2016",-22.9624703,-43.165415
503,"Contemplação","Nov/1995",-22.9799141,-43.2418108
505,"Painel Revoada","Jul/2015",-22.9792648,-43.2304864
506,"Painel de Aluisio Carvão","Jan/1996",-22.978304,-43.2251186
507,"Mercúrio na Gávea","",-22.9790285,-43.2302088
508,"Marco da Inauguração da Auto Estrada Lagoa Barra","Jan/1981",-22.9788858,-43.2286293
509,"Marco Rodoviário da Gávea","",-22.9819091,-43.2405798
510,"Teixeira Soares","Jul/1930",-22.9404358,-43.1981981
511,"Miguel Couto","Set/1944",-22.9778508,-43.2229555
512,"Rocha Leão, o Barão de Itamarati","Jan/1938",-22.9732459,-43.2253913
513,"Clementino Fraga ","Mar/1983",-22.9744917,-43.2263329
514,"Santos Dumont- Gavea","Jul/2001",-22.9176328,-22.9176328
515,"Chacrinha ","Nov/2010",-22.9670206,-43.2182055
516,"Lineu de Paula Machado ","Jul/1948",-22.9736912,-43.2256268
517,"Otto Lara Resende ","Dez/2002",-22.9662835,-43.2193151
518,"Padre Antônio Vieira ","Mar/2011",-22.9782127,-43.2335129
519,"Sérgio Vieira de Mello","Mar/2013",-22.9803607,-43.2241417
520,"Sibelius ","Dez/1965",-22.9774598,-43.226212
521,"Chopin","Set/1944",-22.9551896,-43.165522
522,"Marechal Rondon na Praia Vermelha","Set/1980",-22.9544749,-43.1654532
523,"Pasteur ","Jul/1925",-22.9538729,-43.1693478
524,"Eusébio de Oliveira","Dez/1941",-22.9539283,-43.169591
525,"Cacilda Becker ","Mai/2002",-22.9529268,-43.1691992
526,"Pomona no Urca","Jan/1963",-22.9555294,-43.1655727
527,"Ceres na Urca","Jan/1963",-22.9555294,-43.1655727
528,"Vestal na Urca","Jan/1963",-22.954543,-43.1653888
529,"Flora na Urca","Jan/1963",-22.954543,-43.1653888
530,"Heróis de Laguna e Dourados ","Jul/1939",-22.9546327,-43.1666687
531,"Intentona Comunista","Jan/1974",-22.9551823,-43.1665068
532,"Marco da Revolução de 1964 ","Nov/1964",-22.9546327,-43.1666687
533,"Amurada da Rua General Urquisa","",-22.9808041,-43.2251673
534,"Frades da Praia Vermelha","",-22.95502,-43.1654889
535,"São Pedro do Mar ","Jul/1959",-22.9483318,-43.165671
536,"Ponte da Avenida Portugal","Jan/1908",-22.9519744,-43.1694687
537,"Piso de Pedra Portuguesa de Rosa dos Ventos da Urca","",-22.9518261,-43.1692833,
538,"Guarda-corpo da Avenida Portugal","Jan/1908",-22.9517387,-43.1691738
539,"Chaminé da Urca","",-22.9553712,-43.1734979
540,"Chafariz da Praia Vermelha","Jul/1939",-22.954726,-43.1666705
541,"Fonte do Manequinho","Jan/1914",-22.9549887,-43.1775353
542,"Sérgio Cardoso ( desparecido)","Jan/1973",-22.9188802,-43.183083
543,"Guarda-corpo do Largo dos Guimarães","",-22.9215591,-43.185946
544,"Amurada do Largo dos Guimarães","",-22.9215591,-43.185946
545,"Piso de Pé de Moleque no Largo dos Neves","",-22.9163181,-43.1918714
546,"Piso de Pé de Moleque na Ladeira do Vianna","",-22.9157048,-43.1931438
547,"Piso de Pé de Moleque na Travessa Xavier do Passos ","",-22.9383812,-43.2071228
548,"Piso de Pé de Moleque na Rua Miguel de Paiva","",-22.9194468,-43.19189
549,"Piso de Pé de Moleque da Ladeira do Meirelles","",-22.9218364,-43.1868242
550,"Piso em Pé de Moleque da Estrada das Paineiras","",-22.9451334,-43.2052628
551,"Piso de Pé de Moleque na Rua Paula Ramos","",-22.9359052,-43.2134294
552,"Amurada da Rua Aprazível","",-22.924754,-43.187005
553,"Fonte do Chororó","Jan/1925",-22.9412287,-43.2105207
554,"Coronel Assunção ","Mai/1959",-22.895707,-43.1912978
555,"Ceres do Jardim de Valongo","Jan/1843",-22.8988313,-43.1876692
556,"Marte do Jardim do Valongo","Jan/1843",-22.8988313,-43.1876692
557,"Mercúrio do Jardim do Valongo","Jan/1843",-22.8988313,-43.1896557
558,"Minerva do Jardim do Valongo","Jan/1843",-22.8989298,-43.1876584
559,"Amurada do Jardim de Valongo II","Jan/1906",-22.8989924,-43.1876515
560,"Escadaria do Jardim do Valongo","Jan/1906",-22.8989924,-43.1876515
561,"Amurada do Jardim do Valongo I","Jan/1906",-22.8989924,-43.1876515
562,"Guarda-corpo do Jardim do Valongo","Jan/1906",-22.8989924,-43.1876515
563,"Cais do Valongo ","Jul/2012",-22.896706,-43.1870698
565,"Pedra do Sal","",-22.897953,-43.185532
566,"Piso de Pé de Moleque da Rua Jogo da Bola","",-22.898572,-43.1858124
567,"Piso de Pé de Moleque do Beco João José","",-22.8978855,-43.1843437
568,"Coreto da Praça Harmonia","Jan/1978",-22.8951785,-43.1916191
569,"Nossa Senhora da Imaculada Conceição do Morro da Conceição","Jan/1954",-22.8988554,-43.1830473
570,"Oratório Capela das Almas ","Jan/1902",-22.899592,-43.194427
571,"Escadaria do Morro do Livramento","",-22.8992598,-43.1890055
572,"Painel Gentileza 1 ","",-22.9003499,-43.2105682
573,"Painel Gentileza 2","",-22.8998695,-43.2105862
574,"Painel Gentileza 3","",-22.9003499,-43.2105908
575,"Painel Gentileza 4","",-22.9003499,-43.2105908
576,"Painel Gentileza 5","",-22.9003499,-43.2105682
577,"Painel Gentileza 6","",-22.9003499,-43.2105682
578,"Painel Gentileza 7","",-22.9003499,-43.2105682
579,"Painel Gentileza 8","",-22.8997617,-43.2105908
580,"Painel Gentileza 9","",-22.8997617,-43.2105908
581,"Painel Gentileza 10","",-22.8997617,-43.2105908
582,"Painel Gentileza 11","",-22.8997617,-43.2105908
583,"Painel Gentileza 12","",-22.8997617,-43.2105908
584,"Painel Gentileza 13","",-22.9003499,-43.2105682
585,"Painel Gentileza 14","",-22.9003499,-43.2105682
586,"Painel Gentileza 15","",-22.9003499,-43.2105682
587,"Painel Gentileza 16","",-22.8980835,-43.2116679
589,"Painel Gentileza 17","",-22.8980835,-43.2116679
590,"Painel Gentileza 18","",-22.8980835,-43.2116679
591,"Painel Gentileza 19","",-22.8980835,-43.2116679
593,"Painel Gentileza 20","",-22.8980835,-43.2116679
594,"Painel Gentileza 21","",-22.8959523,-43.214497
595,"Painel Gentileza 22","",-22.8959523,-43.214497
596,"Painel Gentileza 23","",-22.8959523,-43.214497
597,"Painel Gentileza 24","",-22.8959523,-43.214497
598,"Painel Gentileza 25","",-22.8959523,-43.214497
599,"Painel Gentileza 26","",-22.8959523,-43.214497
600,"Painel Gentileza 27","",-22.8937528,-43.2156461
601,"Painel Gentileza 28","",-22.8937528,-43.2156461
602,"Painel Gentileza 29","",-22.8937528,-43.2156461
603,"Painel Gentileza 30","",-22.8937528,-43.2156461
604,"Painel Gentileza 31","",-22.8929535,-43.2160161
605,"Painel Gentileza 32","",-22.8929535,-43.2160161
606,"Painel Gentileza 33","",-22.8929535,-43.2160161
607,"Painel Gentileza 34","",27/11/2000,-43.2160161
608,"Painel Gentileza 35","",-22.8929535,-43.2160161
609,"Painel Gentileza 36","",-22.8929535,-43.2160161
610,"Painel Gentileza 37","",-22.8929535,-43.2160161
611,"Painel Gentileza 38","",-22.8929535,-43.2160161
612,"Painel Gentileza 39","",-22.8929535,-43.2160161
613,"Painel Gentileza 40","",-22.8929535,-43.2160161
614,"Painel Gentileza 41","",-22.8906311,-43.2168948
615,"Painel Gentileza 42","",-22.8906311,-43.2168948
616,"Painel Gentileza 43","",-22.8906311,-43.2168948
617,"Painel Gentileza 44","",-22.8906311,-43.2168948
618,"Painel Gentileza 45","",-22.8906311,-43.2168948
619,"Painel Gentileza 46","",-22.8906311,-43.2168948
620,"Painel Gentileza 47","",-22.8906311,-43.2168948
621,"Painel Gentileza 48","",-22.8906311,-43.2168948
622,"Painel Gentileza 49","",-22.8906311,-43.2168948
623,"Painel Gentileza 50","",-22.8906311,-43.2168948
624,"Painel Gentileza 51","",-22.8906311,-43.2168948
625,"Painel Gentileza 52","",-22.8906311,-43.2168948
626,"Painel Gentileza 53","",-22.8906311,-43.2168948
627,"Painel Gentileza 54","",-22.8906311,-43.2168948
628,"Painel Gentileza 55","",-22.8906311,-43.2168948
629,"Painel Gentileza s/n","",-22.8906311,-43.2168948
630,"Cascata - Jardim do Valongo","Jan/1906",-22.8989924,-43.1876515
631,"Chafariz da Imperatriz ","Dez/1872",-22.8967853,-43.1871019
632,"Chafariz Mulher e o Menino","Jun/1964",-22.8995194,-43.2012999
633,"José Bonifácio da Quinta da Boa Vista","Jul/2022",-22.90536,-43.2243186
635,"Serzedelo Correia ","Out/1910",-22.9058302,-43.2254079
636,"Nilo Peçanha II","Out/1910",-22.9053459,,-43.2255175
637,"Nilo Peçanha ","Jan/1911",-22.9053655,-43.2243448
638,"Glaziou ","Out/1910",-22.9048496,-43.2217892
639,"Pedro II ","Dez/1925",-22.9054389,-43.2247523
640,"Luiz Gonzaga ","Set/2003",-22.8983825,-43.2196584
641,"Zeferino de Oliveira","Abr/1947",-22.8977482,-43.218008
642,"Padre Cícero ","Set/2009",-22.8965492,-43.221133
643,"Cartola ","Nov/2006",-22.9016384,-43.2410216
644,"Pedro I de São Cristovão","Jan/2004",-22.9030866,-43.2141042
645,"Pedro I do Largo da Cancela","Jun/1972",-22.9003571,-43.2248992
646,"Getulio Vargas em Benfica","Jan/1996",-22.8856285,-43.2521434
647,"África desaparecida","Out/1910",-22.9056425,-43.2258737
648,"América - desaparecida","Out/1910",-22.9056425,-43.2258737
649,"Ásia - desaparecida","Out/1910",-22.9056425,-43.2258737
650,"Diana a Caçadora ","Out/1910",-22.9056425,-43.2258737
651,"Aquário da Quinta da Boa Vista","Out/1910",-22.9063019,-43.2281958
652,"Trabalho de aço ","Jul/1923",-22.9063019,-43.2281958
653,"Canto das Sereias ","Out/1910",-22.9056738,-43.2215889
654,"Mesa do Imperador da Quinta da Boa Vista","",-22.9066881,-43.2275959,
655,"Imperatriz Leopolina","Mar/1997",-22.9055816,-43.2253663
656,"Bebedouro Tronco de Arvore da Quinta da Boa Vista","Jan/1876",-22.9064936,-43.2227264
658,"Túnel na Quinta da Boa Vista","Jan/1876",-22.9058179,-43.2226438
659,"Coreto do Pagode Chinês","Out/1910",-22.9058179,-43.2226438
660,"Templo em Ruinas ou de Apolo ","Out/1910",-22.9058179,-43.2226438
661,"Guarda-corpo I da Ponte da Quinta da Boa Vista","Out/1910",-22.9079862,-43.2226074
662,"Guarda-corpo II da Ponte da Quinta da Boa Vista","Out/1910",-22.9079718,-43.2225054
663,"Guarda-corpo III da Ponte da Quinta da Boa Vista","Out/1910",-22.906246,-43.2224362
664,"Guarda-corpo IV da Ponte da Quinta da Boa Vista","Out/1910",-22.9051035,-43.2223434
665,"Guarda-corpo V da Ponte da Quinta da Boa Vista","Out/1910",-22.9075837,-43.2247066
666,"Guarda-corpo VI da Ponte da Quinta da Boa Vista","Out/1910",-22.9075709,-43.226231
667,"Cápsula do Tempo na Quinta da Boa Vista","Jan/1972",-22.9056425,-43.2258737
668,"Vaso I do Terraço da Quinta ","Out/1910",-22.90576,-43.2257812
669,"Vaso II do Terraço da Quinta","Out/1910",-22.9056874,-43.225434
670,"Vaso Monumental do Terraço da Quinta","Out/1910",-22.9055902,-43.2250378
671,"Amurada do Terraço da Quinta da Boa Vista","Out/1910",-22.9053866,-43.2249472
672,"Portão de Ferro da Quinta da Boa Vista","",-22.908628,-43.2228753
673,"Portão Monumental da Quinta da Boa Vista","Out/1910",-22.9045641,-43.2199844
674,"Portão do Largo da Cancela ","",-22.9015728,-43.2252913
675,"Portão da Coroa do Zoológico","Jan/1817",-22.904389,-43.228539
676,"Tigre Esmagando a Cobra ","Jan/1948",-22.9051738,-43.229462
677,"Diana a Caçadora do Jardim Zoológico","",-22.9044112,-43.2296193
678,"Macaco Tião ","Ago/1997",-22.904452,-43.2295205
679,"São Francisco de Assis do Jardim Zoologico","Out/1982",-22.90394,-43.2304726
680,"Coluna de Persépolis ","Jun/2012",-22.9050881,-43.2182037
681,"Amurada do Campo de São Cristovão","Nov/1906",-22.8992413,-43.221812
683,"Coreto do Campo de São Cristovão","Nov/1906",-22.898481,-43.2223837
684,"Painel de São Roque ","Jan/1965",-22.9015936,-43.2222982
685,"São Cristovão ","Jan/1963",-22.8965944,-43.2165602
686,"Guarda-corpo da Avenida Rodrigues Alves","",-22.8984589,-43.2102504
687,"Guarda-corpo da Avenida Francisco Bicalho","",-22.9032543,-43.2100961
688,"Marco à Bíblia ","Dez/1996",-22.8856285,-43.2521434
689,"Marco da Inauguração do Viaduto Ana Neri ","Set/1956",-22.8955814,-43.2409907
690,"Escrava Anastácia ","Jul/1981",-22.8897097,-43.235025
691,"Oratório à São Jorge de Benfica","",-22.8897777,-43.2351104
693,"Vaso do Jardim Zoológico","",-22.90394,-43.2304726
694,"Cascata da Quinta da Boa Vista","Jan/1876",-22.9047893,-43.2257732
695,"Gruta da Quinta da Boa Vista","Jan/1876",-22.9047893,-43.2257732
696,"Lago da Quinta da Boa Vista","Jan/1876",-22.9059789,-43.221885
697,"Chafariz da Serpente","",-22.9060389,-43.2225536
698,"Fonte Medusa de Benfica","",-22.8990219,-43.2359633
699,"Paula Freitas ","Out/1935",-22.9177205,-43.2188249
700,"Paula Mayrink","Jan/1959",-22.9173049,-43.2178181
701,"Tim Maia ","Jun/2015",-22.9173049,-43.2178181
702,"Barllet James ","Out/1952",-22.9248074,-43.2333804
703,"Delfino dos Santos ( desaparecido)","Nov/1954",-22.9239159,-43.232214
704,"Oswaldo Diniz Magalhães ","Mai/1957",-22.9237269,-43.2319407
705,"Almirante Crockane ","Jan/1930",-22.9223314,-43.2311171
706,"Elias Goraybe ","Nov/1997",-22.9259646,-43.2340117
707,"À Cleyde Prado Maia ","Dez/2008",-22.9218073,-43.2214041
708,"Irmão Gonçalves Xavier - desaparecido","Set/1999",-22.9208109,-43.2231799
709,"Luis Gastão D'Escargolle ","Jan/1957",-22.9396266,-43.2485938
710,"Coronel Xavier de Brito ","Nov/1972",-22.9323644,-43.2431001
711,"Lamartine Babo ","Set/1966",-22.92408,-43.2363155
712,"Rubens Paiva","Set/2014",-22.9240598,-43.2365473
713,"São Charbel","Out/1994",-22.9285502,-43.2399523
714,"São Marron","Jul/1997",-22.9206706,-43.2226506
715,"Ismael Silva ","Set/2010",-22.9130206,-43.2027153
716,"Álvaro Reis ","Dez/2010",-22.9103604,-43.2038316
717,"Guarda-corpo da Avenida Maracanã I","Jan/1922",-22.9109519,-43.2219265
718,"Guarda-corpo da Rua Heitor Beltrão","",-22.9181216,-43.2200342
719,"Guarda-corpo da Avenida Maracanã II","Jan/1922",-22.9152765,-43.2289016
720,"Guarda-corpo da Avenida Paulo de Frontin","Jan/1909",-22.9249777,-43.2097325
721,"Fidelidade","Jan/1957",-22.9184591,-43.2178791
722,"Oratório de Nossa Senhora da Medalha Milagrosa ","Mai/1997",-22.9163686,-43.2125509
723,"Escultura Naif - O Barco","",-22.9329112,-43.2339401
724,"Escultura Naif - A Baleia e Filhote","",-22.9329112,-43.2339401
725,"Escultura Naif - O Beija Flor","",-22.9329112,-43.2339401
726,"Escultura Naif - O Bumba Meu Boi","",-22.9329112,-43.2339401
727,"Escultura Naif - O Burrinho","",-22.9329112,-43.2339401
728,"Escultura Naif - O Caju","",-22.9329112,-43.2339401
729,"Escultura Naif - O Canguru","",-22.9329112,-43.2339401
730,"Escultura Naif - O Camelo","",-22.9329112,-43.2339401
731,"Escultura Naif - O Cão com Bola","",-22.9329112,-43.2339401
732,"Escultura Naif - O Cão Chinês","",-22.9329112,-43.2339401
733,"Escultura Naif - O Cão Manto Negro","",-22.9329112,-43.2339401
734,"Escultura Naif - O Cão Pintado","",-22.9329112,-43.2339401
735,"Escultura Naif - O Cavalo Branco","",-22.9329112,-43.2339401
736,"Escultura Naif - A Cobra e o Porco","",-22.9329112,-43.2339401
737,"Escultura Naif - A Cobra e o Sapo","",-22.9329112,-43.2339401
738,"Escultura Naif - O Macaco","",-22.9329112,-43.2339401
739,"Coreto da Praça do Bichinhos","",-22.9329112,-43.2339401
740,"Escultura Naif - O Duende","",-22.9329112,-43.2339401
741,"Escultura Naif - O Duende com Acordeon","",-22.9329112,-43.2339401
742,"Escultura Naif - O Elefante","",-22.9329112,-43.2339401
743,"Escultura Naif - O Elefante Filhote ","",-22.9329112,-43.2339401
744,"Escultura Naif - A Emilia","",-22.9329112,-43.2339401
745,"Escultura Naif - O Esquilo","",-22.9329112,-43.2339401
746,"Escultura Naif - A Foca","",-22.9329112,-43.2339401
747,"Escultura Naif - A Galinha","",-22.9329112,-43.2339401
748,"Escultura Naif - O Galo","",-22.9329112,-43.2339401
749,"Escultura Naif - O Ganso","",-22.9329112,-43.2339401
750,"Escultura Naif - O Gato","",-22.9329112,-43.2339401
751,"Escultura Naif - A Girafa","",-22.9329112,-43.2339401
752,"Escultura Naif - O Hipopótamo","",-22.9329112,-43.2339401
753,"Escultura Naif - O Indio","",-22.9329112,-43.2339401
754,"Escultura Naif - O Jacaré I","",-22.9329112,-43.2339401
755,"Escultura Naif - Jacaré II","",-22.9329112,-43.2339401
756,"Escultura Naif - O Jogador Brasileiro","",-22.9329112,-43.2339401
757,"Escultura Naif - O Leão","",-22.9329112,-43.2339401
758,"Escultura Naif - A Lontra","",-22.9329112,-43.2339401
759,"Escultura Naif - Mãe e Filhote Dinossauro","",-22.9329112,-43.2339401
760,"Escultura Naif - O Papagaio","",-22.9329112,-43.2339401
761,"Escultura Naif - Os Patinhos","",-22.9329112,-43.2339401
762,"Escultura Naif - O Pavão","",-22.9329112,-43.2339401
763,"Escultura Naif - O Pinguim","",-22.9329112,-43.2339401
764,"Escultura Naif - A Pirâmide","",-22.9329112,-43.2339401
765,"Escultura Naif - O Polvo","",-22.9329112,-43.2339401
766,"Escultura Naif - O Tamandua","",-22.9329112,-43.2339401
768,"Escultura Naif - O Rinoceronte","",-22.9329112,-43.2339401
769,"Escultura Naif - O Saci Perere","",-22.9329112,-43.2339401
770,"Escultura Naif - A Sereia","",-22.9329112,-43.2339401
771,"Escultura Naif - As Tartarugas","",-22.9329112,-43.2339401
772,"Escultura Naif - A Tartaruga Gigante","",-22.9329112,-43.2339401
773,"Escultura Naif - O Urso","",-22.9329112,
774,"Escultura Naif - A Vaca","",-22.9329112,-43.2339401
775,"Escultura Naif - A Visconde de Sabugosa","",-22.9329112,-43.2339401
776,"Escultura Naif - A Zebra","",-22.9329112,-43.2339401
777,"Marco da Inauguração da Avenida Paulo de Frontin","Jan/1919",-22.9243188,-43.2095377
778,"Piso de Pé de Moleque da Ladeira Souza Doca","",-22.9312886,-43.2082508
779,"Banco da Praça dos Bichinhos I","",-22.9684518,-43.1796113
780,"Banco da Praça dos Bichinhos II","",-22.9684518,-43.1796113
781,"Banco da Praça dos Bichinhos III","",-22.9684518,-43.1796113
782,"Banco da Praça dos Bichinhos IV","",-22.9684518,-43.1796113
783,"Banco da Praça dos Bichinhos V","",-22.9684518,-43.1796113
784,"Chafariz da Praça Saens Pena","Nov/1947",-22.9243941,-43.2328928
785,"Chafariz da Praça Xavier de Brito","Ago/1963",-22.9316581,-43.2430116
786,"Chafariz da Praça Paulo de Frontin","Jan/1911",-22.9248202,-43.2092378
787,"Fonte das Águas Férreas ","Dez/1940",-22.9573635,-43.2688191
788,"Bebedouro da Estrada Velha da Tijuca","Jan/1858",-22.9521093,-43.2620343
789,"Lago da Ponte do Alto Boa Vista ","Dez/1940",-22.9507156,-43.2578853
790,"Lago da Cascata do Alto da Boa Vista ","Dez/1940",-22.9576214,-43.2644891
791,"Bica do Monteiro","Jan/1886",-22.9583645,-43.2652777
792,"Chafariz de Grandjean de Montigny ","Jan/1848",-22.9616678,-43.2733192
793,"Fonte Inglesa do Alto da Boa Vista ","",-22.9616678,-43.2733192
794,"Edson Passos ","Jun/1955",-22.9462468,-43.2578849
795,"Guarda-corpo da Rua São Rafael","Jan/1895",-22.9449807,-43.2545888
796,"Marco de Inauguração da Avenida Edson Passos","Dez/1940",-22.9516345,-43.2602768
797,"Ponte do Rio São João ","",-22.9550967,-43.2650407
798,"Piso de Pé de Moleque da Avenida Edson Passos","",-22.9552948,-43.265225
799,"Piso de Pé de Moleque do Bebedouro da Estrada Velha da Tijuca","",-22.9521093,-43.2620343
800,"Lanterna Japonesa I do Alto da Boa Vista","Mai/1957",-22.9571733,-43.265454
801,"Ponte de Madeira ","",-22.9507511,-43.2577902
802,"Lanterna Japonesa II do Alto da Boa Vista","Jun/2014",-22.9507511,-43.2577902
803,"Leão ","Jan/1906",-22.9577422,-43.26624
804,"Frades do Alto da Boa Vista","Dez/1940",-22.9577422,-43.26624
805,"Lampadário do Alto da Boa Vista","Jan/1950",-22.9662674,-43.2774695
806,"Marco em Tributo de Gratidão ","Jan/1857",-22.9666564,-43.2775942
807,"Sanitario Publico da Furnas de Agassiz","Nov/1919",-22.981873,,-43.294601
808,"Marco da Inauguração do Itanhangá","Dez/1975",-22.9844612,-43.3000407
809,"Amurada do Itanhangá","Dez/1975",-22.9844612,-43.3000407
810,"Noel Rosa III deposito","Ago/1996",-22.9133266,-43.2353111
811,"Pedro Ernesto ","Nov/1953",-22.9140258,-43.2370577
812,"Noel Rosa II","Mai/1987",-22.9158194,-43.2462725
813,"Noel Rosa I","Ago/1938",-22.9164223,-43.250327
814,"Heleno da Costa Brandão ","Ago/1948",-22.9129879,-43.2421185
815,"Aos Hahnemannianos - Rodrigues Galhardo, Joaquim Murtinho, Licínio Cardoso, Braga e Costa e Dias da Cruz","Abr/1972",-22.9130602,-43.2425489
816,"Piso de Pedra Portuguesa das Calçadas Musicais","Jan/1965",-22.9151577,,-43.2426861
817,"Obelisco de Vila Isabel","Ago/1996",-22.9166566,-43.2502656
818,"Gradil do Recanto do Trovador","Set/1880",-22.9168873,-43.2602288
819,"Lanterna Japonesa do Parque Recanto do Trovador","Abr/1966",-22.9152633,-43.2601276
820,"Bacia do Elefante ( Girafa)","",-22.9160183,-43.2609973
821,"Lago do Recanto do Trovador","Jun/1888",-22.916291,-43.2609478
822,"Marco da Inauguração Praça Edmundo Rego ","Jan/1935",-22.9223369,-43.2641098
823,"Caramanchão da Praça Edmundo Rego ","Fev/1935",-22.9228895,-43.2646837
824,"Caramanchão da Praça Nobel ","Jan/1940",-22.9272864,-43.2592641
825,"Marco a Música do Grajaú","Jan/1987",-22.9223369,-43.2641098
827,"Barão do Rio Branco ( desaparecido)","Abr/1926",-22.9007686,-43.2788233
828,"Agripino Grieco ","Out/1968",-22.9018772,-43.2797514
829,"Garrincha","Jan/2010",-22.8921404,-43.2808328
830,"Nilton Santos ","Set/2009",-22.8921404,-43.294776
831,"Jairzinho ","Ago/2010",-22.8921404,-43.294776
832,"Zagallo ","Ago/2013",-22.8921404,-43.294776
833,"Orlando Silva","Jan/1959",-22.8909848,-43.2739674
834,"Paulo de Frontin na Cidade Nova","Dez/2012",-22.9087904,-43.2004776
835,"Painel do Túnel João Ricardo","Jul/2011",-22.9004287,-43.1932701
836,"Guarda-corpo do Campo de São Cristovão","Nov/1906",-22.8992393,-43.2218025
837,"Gradil da Praça Paris","Fev/1992",-22.915803,-43.1762367
838,"Caramanchão do Parque Garota de Ipanema","Dez/1978",-22.9883668,-43.1922312
839,"Caramanchão do Parque dos Patins","Jan/1998",-22.9720554,-43.2168094
840,"Lampadário da Praça Paris","Jan/1929",-22.9151664,-43.1754779
841,"Lampadário Suspenso do Corredor Cultural","",-22.9027849,-43.174593
843,"Lampadário do Terraço da Quinta da Boa Vista","Out/1910",-22.9055362,-43.2249964
844,"Lampadário da Assembleia Legislativa","Jan/1926",-22.9041225,-43.1745547
846,"Lampadário do Campo de Santana, Modelo Avenida Central","",-22.9066397,-43.1884192
847,"Lampadário do Teatro Municipal","",-22.9095581,,-43.1764717
848,"Lampadário do Monumento Pedro I","Jan/1865",-22.9065327,-43.182986
849,"Lampadário do Largo de Piolho","",-22.9057662,-43.2180894
850,"Lampadário do Museu do Catete","",-22.9258472,-43.1765808
851,"Lampadário da Praça Duque de Caxias","",-22.9043598,-43.1893883
853,"Chafariz do Palácio Duque de Caxias","Jan/1940",-22.9038876,-43.1898817
857,"Lampadário Modelo Colar de Pérola","Jan/1936",-22.969323,-43.1818173
858,"Lampadário do Monumento a Abertura dos Portos","Jan/1908",-22.9225763,-43.1724863
859,"Lampadário do Quartel Central dos Bombeiros, Modelo Avenida Central","Jan/1906",-22.9087207,-43.1877475
861,"Glória do Palácio Tiradentes","",-22.9043907,-43.1742407
862,"Banco de Burle Marx, Praia de Botofogo","Jan/1954",-22.9473738,-43.1821741
864,"Banco de Burle Marx, Parque do Flamengo","Jan/1965",-22.9226714,-43.1691264
865,"Banco de Burle Marx, Praça Salgado Filho","Jan/1938",-22.9114736,-43.1670899
866,"Banco de Burle Marx, Largo do Machado","Jan/1954",-22.9304328,-43.1786085
867,"Piso de Pedra Portuguesa Mosaico de Burle Marx do Largo da Carioca","Jan/1981",-22.9063647,-43.1783077
868,"Piso de Pedra Portuguesa Mosaico de Burle Marx do Largo do Machado","Jan/1951",-22.9311049,-43.1784413
869,"Piso de Pedra Portuguesa Mosaico de Burle Marx da Praça Julio de Noronha","Set/1970",-22.9623345,-43.1653482
870,"Lampadário do Ministério da Fazenda","Nov/1943",-22.9078406,-43.1729536
872,"Lampadário da Amurada pelo Campo de São Cristovão","Nov/1906",-22.8990312,-43.2208201
873,"Lago da Praça Salgado Filho","Jul/1952",-22.9114736,-43.1670899
874,"Aos Campeões do Mundo - Bellini e outros","Nov/1960",-22.9135268,-43.2276378
876,"Dias da Cruz ( desaparecido)","Set/1996",-22.9021836,-43.2802868
877,"Ary Barroso II","Dez/2003",-22.9626651,-43.1678156
878,"Coreto do Jardim do Méier","Mai/1919",-22.9004644,-43.279142
879,"Fachada de Casa de Criança ","Jan/2002",-22.9004644,-43.279142
880,"Relógio do Sol ","Jan/1981",-22.9005938,-43.2790071
881,"Atena do Jardim do Méier","",-22.9005291,-43.2790742
882,"Relógio do Méier I","Set/1996",-22.9020101,-43.279087
883,"Marco do Méier","Set/1996",-22.9022064,-43.278011
884,"Leão do Méier","Jun/1989",-22.9020599,-43.2802932
885,"Obelisco da Linha Amarela ","Out/1997",-22.8862929,-43.2885948
886,"Oratório à São Jorge do Cachambi I","Jan/2013",-22.8937863,-43.2828704
887,"O Mascate do bairro do Riachuelo","Mar/1996",-22.9024367,-43.2586028
888,"Caramanchão da Praça Rio Grande do Norte","Jan/1937",-22.8995896,-43.29838
890,"Oratório à São Jorge do Cachambi II","Jan/2013",-22.888232,-43.2754679
891,"Cascata do Jardim do Méier","Mai/1919",-22.9006922,-43.2789061
892,"Pedro Fernandes","Ago/2007",-22.8494607,-43.3254336
893,"Vicente de Carvalho ","Jan/1960",-22.8534197,-43.3149425
894,"Cascata do Parque Ari Barroso","Ago/1965",-22.8385076,-43.2877437
895,"Chafariz da Praça Ana Lima","Jun/2005",-22.8296732,-43.3281488
897,"Chafariz da Praça Três Poderes","Jun/2006",-22.8461795,-43.324474
898,"Chafariz da Praça João Berchemman","Mai/2008",-22.8251245,-43.3118685
899,"Índia na Penha","",-22.84243,-43.2781373
900,"Amurada do Santuário da Penha","",-22.8424434,-43.2778694
901,"Fonte do Santuário da Penha","",-22.8424434,-43.2778694
902,"Coreto do Santuário de Penha","Set/1907",-22.8424924,-43.2779846
903,"Ao Policial Militar ","",-22.8422422,-43.2778349
904,"Pórtico Monumental do Santuário da Penha","Set/1907",-22.8424434,-43.2778694
905,"Arcos da Penha","Mar/1996",-22.8423009,-43.2778684
906,"Oratório à São Jorge da Penha","",-22.8368542,-43.2781015
907,"Marco de Vila Kosmos ","",-22.8507802,,-43.3093674
909,"Monsenhor Alves da Rocha","Out/1953",-22.8424434,-43.2778694
910,"Quintino Bocaiúva no bairro de Quintino","Set/2012",-22.8890419,-43.3200678
911,"À Orlando Leite","Out/1982",-22.8848324,-43.3275269
912,"Paulo da Portela ","Jan/1979",-22.8675967,-43.3443539
913,"Coreto de Quintino","Fev/1917",-22.8890419,-43.3200678
914,"Marco da Inauguração do Viaduto de Cascadura ","Jan/1930",-22.8823222,-43.3288256
915,"Mãe ","Mai/1966",-22.8762392,-43.335266
916,"Mural da Praça do Patriarca","Mar/1977",-22.8784709,-43.3410342
917,"Escultura I do Parque Madureira","Jan/2012",-22.861709,-43.3467425
918,"Escultura II do Parque de Madureira","Jan/2012",-22.8671551,-43.3420364
919,"Mural do Parque Madureira","Jun/2012",-22.861709,-43.3467425
920,"Painel do Jongo e Samba","Mai/2012",-22.8824885,-43.3418215
921,"Oratório à São Jorge de Madureira","",-22.8647621,-43.3470576
922,"Oratório à São Jorge de Turiaçu","",-22.8626704,-43.3424094
923,"Chafariz do Parque Madureira","Jun/2012",-22.8668115,-43.342697
924,"Cascata I do Parque Madureira","Jun/2012",-22.8646589,-43.3443277
925,"Cascata II do Parque Madureira","Out/2015",-22.861709,-43.3467425
926,"Oratório à São Jorge de Quintino","",-22.8928722,-43.3228252
927,"Marco à Primeira foto na Àmerica do Sul - Daguerreotipo ","Set/2016",-22.9034907,-43.1736409
928,"Marco Anéis Olimpicos","Mai/2016",-22.8645234,-43.3442527
929,"Jogo Amistoso de Futebol entre Brasil e China","Ago/2016",-22.9729393,-43.3712034
930,"Escultura Lagoa","Ago/2016",-22.9746841,-43.2182073
931,"Honório Gurgel","Jul/2012",-22.8384193,-43.362444
932,"Coelho Neto","Abr/2011",-22.8309627,-43.3450077
933,"Coreto de Vigário Geral ","Abr/1911",-22.8076708,-43.3075619
934,"Coreto de Ricardo de Albuquerque","Jan/2002",-22.839608,-43.3992105
935,"Miscigenação ","Abr/1992",-22.8143343,-43.3805928
936,"Dom Hélder Câmara ","Nov/2011",-22.8814586,-43.2935571
937,"Oratório à São Jorge de Pilares","Abr/2016",-22.8814586,-43.2935571
938,"Almirante Visconde de Inhaúma","Mai/2012",-22.8725534,-43.280841
939,"São Cristóvão dos Motoristas","Set/1966",-22.8189257,-43.3201278
940,"Nossa Senhora da Apresentação ","Jan/1982",-22.8309072,-43.3263725
941,"Oratório de Nossa Senhora Aparecida de Irajá","Jan/2007",-22.8424016,-43.3256744
942,"Bica da Mulata da Pavuna","Jul/2012",-22.8065579,-43.364268
943,"Liberdade, Estátua da Liberdade","Jan/1964",-22.856028,-43.4925693
944,"Painel aos Expedicionários de Bangú","Mai/1983",-22.881131,-43.4643382
945,"Marco à Copérnico","Set/1996",-22.8061779,-43.364476
947,"Marco 6 da Fazenda Imperial de Santa Cruz ","Jan/1826",-22.876234,-43.4551747
948,"Marco do IV Centenário ","Dez/1965",-22.8982983,-43.4406179
949,"Marco Vila Terra Brasil ","Nov/1950",-22.8822241,-43.4832401
950,"Serafim Moreira ","Out/1968",-22.9118389,-43.6106968
951,"Padre Miguel","Set/1948",-22.8780121,-43.4342352
952,"Carlos Alberto da Cruz Wenceslau","Nov/2009",-22.8780552,-43.4347683
953,"Domingos da Guia ","Abr/2004",-22.8750786,-43.4649342
954,"Guilherme da Silveira ","Fev/1944",-22.8750578,-43.4563682
955,"Às Doze Crianças de Realengo","Set/2015",-22.8839122,-43.416879
956,"Chafariz do Calçadão de Bangú","Dez/2002",-22.8750769,-43.4648757
957,"Chafariz da Igreja Santa Cecilia ( demolido)","Out/2014",-22.8811454,-43.4647114
958,"Bica de Pedra de Bangú","",-22.877268,-43.4439798
959,"Oratório a Escrava Anastácia e Nossa Senhora Aparecida ...","Mai/2003",-22.8728649,-43.2809601
960,"Gradil da Universidade Federal do Rio de Janeiro","Set/1880",-22.951711,-43.1753299
961,"Manuel Caldeira de Alvarenga ","Jul/1956",-22.9030409,-43.5681411
962,"Telmo Gonçalves Maia ","Jul/1957",-22.9045239,-43.5733201
963,"Filomena Del Cima (desaparecido)","Mai/1949",-22.9012005,-43.5443929
964,"À Alim Pedro ( desaparecido)","Jan/1958",-22.9067895,-43.5655899
965,"Manoel Branco ","",-22.9062168,-43.5658263
966,"Arthur Azevedo ","Abr/1960",-22.8984832,-43.5635435
967,"À Augusto de Vasconcelos ","",-22.8941305,-43.5361196
968,"Francisco Freire Alemão ( desaparecido)","Jul/1967",-22.9077435,-43.5652324
969,"Atena de Campo Grande","",-22.9031297,-43.5677675
970,"Laranja Descascada","Jul/1996",-22.9067898,-43.5609534
971,"Mãe Preta","Mai/1968",-22.9135203,-43.5975711
972,"Paizinho Quincas","Mai/1958",-22.9137567,-43.5975897
973,"Marco a Abolicão - Ventre Livre I","Jan/1960",-22.8986335,-43.5631772
975,"Painel aos Abolicionistas","Jan/1960",-22.8984864,-43.562846
976,"Santa Sofia ","Jan/1958",-22.9118951,,-43.6109517
977,"Marco 11 da Fazenda Imperial de Santa Cruz","Jan/1826",-22.9198658,-43.6819485
978,"Marco da Fazenda Imperial de Santa Cruz","Jan/1826",-22.9133104,-43.6847209
979,"Cruzeiro de Santa Cruz","Abr/1987",-22.9133798,-43.6849324
980,"Painel aos Expedicionários de Santa Cruz","Set/1966",-22.9133798,-43.6849324
981,"Broca","Jul/1996",-22.9028566,-43.5590348
982,"Arco Ìris","Jul/1996",-22.9028566,-43.5590348
983,"Relógio de Campo Grande","Jul/1996",-22.9028566,-43.5590348
984,"Laranjais I","Jul/1996",-22.9025031,-43.5600507
985,"Pirâmide de Campo Grande","Jul/2996",-22.9024629,-43.5596437
986,"Palmeiras","Jul/1996",-22.907364,-43.5658462
987,"Coreto da Praça Elza Osborne","",-22.9256153,-43.5175727
988,"Marco da iluminação de Campo Grande","Abr/1919",-22.9053885,-43.5616656
990,"Cruzeiro da Praça Dom João Esberard","Jan/1958",-22.9056305,-43.561315
991,"Marco ICC ","Nov/1990",-22.907505,-43.5659254
992,"Marco do Abastecimento de Santa Cruz ","Jan/1933",-22.8730859,-43.6761149
993,"Ponte dos Jesuítas ","Jan/1752",-22.8724007,-43.6760928
994,"Marco 9 da Fazenda Imperial de Santa Cruz","Jan/1826",-22.9118506,-43.5921662
995,"Marco 10 da Fazenda Imperial de Santa Cruz","Jan/1826",-22.9192034,-43.6410424
996,"Bica de Cantaria de Santa Cruz","",-22.923696,-43.681876
997,"Marco Comemorativo de Santa Cruz","Jan/1993",-22.9119081,-43.6874328
998,"Marco dos Jesuítas","",-22.9197428,-43.6831338
999,"José Antônio Ciraudo - desaparecido","Ago/1979",-22.9066743,-43.197073
1000,"Cesário de Melo","Jan/1952",-22.9176328,-43.6832614
1001,"Senador Câmara","Mar/1934",-22.9155604,-43.6848836
1002,"Marechal Duque de Caxias de Santa Cruz","Jan/1988",-22.9133375,-43.6848037
1003,"Coronel Villagran Cabrita ","",-22.9133375,-43.6848037
1004,"Padre Guilherme Decaminada ","Dez/1997",-22.9196488,-43.683583
1005,"Coronel Honório dos Santos Pimentel ","Jul/1967",-22.9263167,-43.690654
1006,"Lago da Praça Telmo Gonçalves Maia","Jul/1957",-22.9044486,-43.5729773
1007,"Fonte Wallace da Praça Dom Romualdo","Jan/1958",-22.9199976,-43.684932
1008,"Bica de Cantaria de Campo Grande"," ",-22.9040616,-43.5544659
1009,"Fonte do Vaso da Praça Enzo Osborne","",-22.9256153,-43.5175727
1010,"Fonte Ciborium da Praça Francisco Barbosa","Jan/1906",-22.9075288,-43.5639832
1011,"Chafariz Canhão","Jul/1996",-22.9016643,-43.5563492
1012,"Marechal Hermes ","Set/1941",-22.8658028,-43.4022003
1013,"Brigadeiro Antônio de Sampaio ","Dez/1952",-22.8641808,-43.3988234
1014,"General João Severiano da Fonseca ","",-22.8697124,-43.4125117
1015,"Marechal Rondon na Vila Militar","",-22.8688651,-43.4084884
1016,"General Osório da Vila Militar","Mai/1978",-22.8680986,-43.406908
1017,"Coreto da Praça Marechal Hermes ","Ago/1977",-22.8658028,-43.4022003
1018,"Marco da Iluminação da Vila Militar ","Ago/1977",-22.8658028,-43.4022003
1019,"Coreto do Campo de Marte ","",-22.8762359,-43.4309844
1020,"Marco da Construção da Vila Militar ","Mar/2008",-22.8649762,-43.4004913
1022,"Marco do Símbolo do Exército ","",-22.8694903,-43.4097686
1023,"Zumbi dos Palmares de Padre Miguel","Nov/2004",-22.8716352,-43.4509127
1024,"Coreto de Sepetiba ","Nov/1949",-22.970757,-43.7097937
1025,"Iemanjá de Sepetiba","Jan/1976",-22.9852254,-43.6945419
1026,"Oratório á São Jorge de Sepetiba","Jan/1993",-22.9852254,-43.6945419
1027,"Marco do abastecimento de Sepetiba","Nov/1949",-22.9711186,-43.7098385
1028,"Marco da Fazenda Imperial de Barra de Guaratiba","Jan/1826",-22.9866701,-43.6591693
1029,"Marco do Polígono do Tiro da Marambaia","Ago/1943",-23.0630196,-43.5657861
1030,"Murada de Pedra MIrante da Prainha","Abr/2012",-23.0515711,-43.5491111
1031,"Marco Rodoviário da Rua Barros de Alarcão","",-23.0052507,-43.6379123
1032,"Oratório de São Pedro de Barra de Guaratiba ","",-23.0672756,-43.5676822
1033,"Bica de Cantaria de Pedra de Guaratiba","",-23.0059543,-43.6341894
1035,"Marco da Escola Militar de Realengo","",-22.8761862,-43.4315152
1036,"Getulio Vargas do Hospital Getulio Vargas","Jan/1972",-22.8386561,-43.2856748
1037,"Obelisco de Rocha Miranda","Jan/2002",-22.8543349,-43.3517873
1038,"Marco da Vitória da Rocha Miranda","",-22.8541939,-43.3518989
1039,"Ceres de Rocha Miranda","Jan/1960",-22.849288,-43.3373466
1040,"Coronel Correia Lima","Mai/1942",-22.8666178,-43.2474132
1041,"Paul Harris em Bonsucesso","Jan/1963",-22.8679799,-43.2541624
1042,"Álvaro Costa Melo","Out/1996",-22.8622946,-43.2540358
1043,"À Augusto Motta ","Set/1996",-22.8655207,-43.2550024
1044,"Ismael Ribeiro","Set/2011",-22.8596725,-43.2676909
1047,"Chafariz da Praça das Nações","Jan/1908",-22.8670454,-43.2550723
1048,"Laranjais II","Jul/1996",-22.9030779,-43.5581526
1049,"Marco a Abolicão - Ventre Livre II","Jan/1960",-22.8986335,-43.5631772
1050,"Piso de Pé de Moleque da Ponte dos Jesuítas","",-22.8724007,-43.6760928
1051,"Henrique Dodsworth","Out/1945",-22.9404063,-43.3437331
1052,"Diana de Gabies","",-22.8976865,-43.3521423
1053,"Caramanchão da Praça Barão de Taquara - demolido","Out/1939",-22.8976865,-43.3521423
1054,"Coreto da Praça Barão da Taquara, conhecida Praça Seca","Jan/1928",-22.8975516,-43.3522746
1055,"Mastro da Praça Barão da Taquara, conhecida Praça Seca","Jan/1936",-22.8975516,-43.3522746
1056,"Relógio do Sol de Jacarepagua","Set/2002",-22.914474,-43.3808532
1057,"Marco a Bíblia Sagrada","",-22.9474803,-43.3605231
1058,"Aviadores do Campo dos Afonsos","Nov/1923",-22.8828759,-43.3836072
1059,"Coreto da Praça H","Mar/2002",-22.887746,-43.3923159
1060,"São Jorge da Sulacap","Jun/2007",-22.8855537,-43.3758254
1061,"Chafariz da Praça Barão da Taquara","Jan/1977",-22.8976865,-43.3521423
1062,"Chafariz Outono","Ago/1923",-22.9166383,-43.4146136
1063,"Barão da Taquara","Out/1939",-22.8973527,-43.3521058
1065,"Chafariz do Museu Historico Nacional","Jan/2003",-22.9056982,-43.170579
1066,"Marco da Remodelação da Estrada da Gávea ","Jun/1938",-22.9988731,-43.2690005
1067,"Passarela de Oscar Nieweyer","Jun/2010",-22.9922487,-43.2510496
1068,"Coreto do Largo da Barrinha ","Ago/1996",-23.0105475,-43.2971808
1069,"São Francisco de Paula ","Nov/1995",-23.0083089,-43.3047443
1070,"Carniça ","Jan/1997",-23.0066446,-43.3164667
1071,"Âncora da Barra","Out/1990",-23.0105008,-43.3660239
1072,"Ao PAN 2007 ","Jul/2007",-22.9734851,-43.3639193
1073,"Painel do Bosque da Barra ","Jan/2000",-22.9999156,-43.3716871
1074,"Hibisco ( deposito)","Jun/2000",,
1075,"Américas ","Jan/1996",-23.0071074,-43.3046769
1076,"Escultura de Burle Marx ","Jan/1989",-23.0164763,-43.4724718
1077,"Amurada do Parque Natural Municipal Chico Mendes","",-23.0222431,-43.4716809
1078,"Pedra Talhada ","",-23.0224656,-43.4718755
1079,"Capivaras ","Jan/2014",-23.0203531,-43.4506474
1080,"Marco Rodoviário da Estrada dos Bandeirantes","",-23.0108388,-43.5185713
1081,"À Pepê Lopes","Out/1991",-23.0143024,-43.3120514
1082,"Maria Augusta ","Set/2000",-23.0142532,-43.2981008
1083,"Américo Vespúcio","Abr/1987",-23.0130247,-43.3176068
1084,"General Joaquim Inácio Cardoso ","Jan/1938",-23.0003431,-43.3536991
1085,"Almirante Miguel Grau","Jan/1994",-23.0106041,-43.3662237
1086,"Chico Mendes ","Jun/2006",-23.0226597,-43.4716789
1087,"Drault Ernanny ","Mai/2001",-23.0226597,-43.4716789
1088,"José Baltazar ","Set/2014",-22.9761322,-43.4942274
1089,"Zuzu Angel","Abr/1998",-22.998539,-43.2672116
1090,"Chafariz Flor de Lótus ","Set/2002",-23.0343665,-43.4922416
1091,"Chafariz Rosa dos Ventos ","Nov/2004",-23.0308789,-43.4709579
1092,"Chafariz do Parque Natural Municipal Chico Mendes ","",-23.0224711,-43.4718018
1093,"Fonte da Barrinha ","",-23.0075138,-43.2930838
1095,"Chafariz do Pomar da Barra ","Jan/1992",-23.0114607,-43.3097004
1096,"Bailarina","Jan/1908",-22.9284938,-43.3337228
1097,"Banco da Estrada do Joá","Jun/1938",-23.006061,-43.2837625
1098,"Chafariz do Largo do Tanque - depósito","Jul/1964",-22.9067928,-43.1973384
1099,"Atena do Bosque da Freguesia","",-22.9491035,-43.3409763
1100,"Chafariz da Praça Nuno Roland","",-22.8901631,-43.400262
1101,"Chafariz da Rua Victor Civita ","",-22.9743569,-43.3673349
1102,"Fontes da Barra","Dez/2013",-22.9731299,-43.3727426
1104,"Chafariz Escultórico do Jardim Oceânico","Jul/2016",-23.0071286,-43.3100802
1105,"Painel do Jardim Oceânico","Jul/2016",-23.007003,,-43.311239
1107,"Bebedouro de Fídias ","",-22.7622363,-43.1071716
1108,"Banco de Peixe da Praça Pedro Bruno","",-22.7622363,-43.1071716
1109,"Caramanchão da Praça Pedro Bruno","Jul/1935",-22.7622363,-43.1071716
1110,"Marco do logradouro da Praça Pedro Bruno","",-22.7622363,-43.1071716
1111,"Caramanchão Belvedere de Praça Bom Jesus","Jul/1935",-22.7622363,-43.1071716
1112,"Bebedouro dos Pássaros I ","",-22.7622363,-43.1071716
1113,"Bebedouro dos Pássaros II","",-22.7622363,-43.1071716
1114,"Bebedouro dos Pássaros III","",-22.7622363,-43.1071716
1115,"Marco do logradouro da Praia dos Tamoios","",-22.7622363,-43.1071716
1116,"Marco do logradouro da Praia dos Tamoios II","",-22.7622363,-43.1071716
1117,"Marco da Lenda do Baobá - Maria Gorda","",-22.7622363,-43.1071716
1118,"Canhão de Dom João ","</strong></br> Autor: <strong>",-22.7622363,-43.1071716
1119,"Cacique Tamoio Guaixara","Jul/2010",-22.7622363,-43.1071716
1121,"Pedestal Vazio ","",-22.7622363,-43.1071716
1122,"Caramanchão do Parque dos Tamoios","Jul/1935",-22.7622363,-43.1071716
1123,"Marco aos Ex-Combatentes de Paquetá","",-22.7622363,-43.1071716
1124,"Banco da Rua Padre Juvenal","",-22.7622363,-43.1071716
1125,"Coreto de Paquetá à Renato Antunes","Jan/1980",-22.7622363,-43.1071716
1126,"Cruzeiro de Paquetá","",-22.7622363,-43.1071716
1127,"Poço de São Roque ","",-22.7622363,-43.1071716
1128,"Marco do logradouro do Parque dos Tamoios","Mai/1934",-22.7622363,-43.1071716
1129,"Marco do Logradouro da Praça São Roque","",-22.7622363,-43.1071716
1130,"Marco do logradouro da Rua Vivaldo Coaracy ","",-22.7622363,-43.1071716
1131,"Marco do logradouro da Rua Maestro Anacleto","Jul/1935",-22.7622363,-43.1071716
1132,"Marco em Homenagem à Paquetá","",-22.7622363,-43.1071716
1133,"À Castanegto ","Jul/1935",-22.7622363,-43.1071716
1134,"Marco do logradouro da Praia Pintor Castanegto ","",-22.7622363,-43.1071716
1135,"Marco do logradouro da Rua Furquim Werneck","",-22.7622363,-43.1071716
1136,"Marco de Tributo à Árvore I","",-22.7622363,-43.1071716
1137,"Marco de Tributo à Árvore II","",-22.7622363,-43.1071716
1138,"Banco Aos Velhos Pescadores","Jul/1941",-22.7622363,-43.1071716
1139,"Banco de Peixe da Praia José Bonifácio","",-22.7622363,-43.1071716
1140,"Banco de Pedra de Paquetá","",-22.7622363,-43.1071716
1141,"Ponte da Saudade ","",-22.7622363,-43.1071716
1142,"Portão do Parque Darke de Mattos","Jan/1978",-22.7622363,-43.1071716
1143,"Banco e Mesa à Árvore","Jan/1978",-22.7622363,-43.1071716
1144,"Amurada do Parque Darke de Mattos","Jan/1978",-22.7622363,-43.1071716
1145,"Banco na encosta em Paquetá","Jan/1978",-22.7622363,-43.1071716
1146,"Coreto e Mirante do Parque Darke de Mattos","Jan/1978",-22.7622363,-43.1071716
1147,"Oratório de Nossa Senhora da Conceição de Paquetá","",-22.7622363,-43.1071716
1148,"Banco de Rocaille de Paquetá","Jan/1978",-22.7622363,-43.1071716
1149,"Templo à Árvore ","",-22.7622363,-43.1071716
1150,"Túnel na Pedra I de Paquetá","",-22.7622363,-43.1071716
1151,"Túnel na Pedra II de Paquetá","Jan/1978",-22.7622363,-43.1071716
1152,"Túnel na Pedra III de Paquetá","Jan/1978",-22.7622363,-43.1071716
1153,"À Joaquim Manuel Macedo ","Mai/1938",-22.7622363,-43.1071716
1154,"Ponte da Pedra da Moreninha ","",-22.7622363,-43.1071716
1155,"Túnel da Moreninha ","",-22.7622363,-43.1071716
1156,"Pedro Bruno ","Nov/1948",-22.7622363,-43.1071716
1157,"Ao Doutor Aristão ","",-22.7622363,-43.1071716
1158,"Carlos Gomes em Paquetá","Mai/1938",-22.7622363,-43.1071716
1159,"Getulio Vargas em Paquetá","",-22.7622363,-43.1071716
1160,"À Hermes Fontes ","Nov/1936",-22.7622363,-43.1071716
1161,"À Augusto Silva ","Jan/1980",-22.7622363,-43.1071716
1163,"Andre Thevet ","Dez/1994",-22.7622363,-43.1071716
1164,"Relógio Modelo Mesbla ","Ago/1966",-22.7622363,-43.1071716
1165,"Golfinho de Paquetá","",-22.7622363,-43.1071716
1166,"Adelino Moreira","Jan/2008",-22.9018191,-43.5589983
1167,"Beethoven","</strong></br> Autor: <strong>",-22.7622363,-43.1071716
1168,"Marco 7 da Fazenda Imperial de Santa Cruz","Jan/1826",-22.879721,-43.5021267
1169,"Cais dos Pescadores, Píer da Praia de São Bento ","Jan/1930",-22.8208634,-43.2278707
1170,"Marco Maçônico ","Ago/2006",-22.8307899,-43.2366549
1171,"Torreão de Pedra ","",-22.8259265,-43.2332059
1172,"Avião ","Ago/1969",-22.8154803,-43.221963
1173,"Relógio da Cacuia ","Dez/1965",-22.8120299,-43.1918183
1174,"Coreto da Praça Manguetá","Jan/1936",-22.8090764,-43.1862537
1175,"Papai Noel ","Nov/1965",-22.7984491,-43.1981991
1176,"Painel da Praça Três Poderes","Jun/2006",-22.8461795,-43.324474
1177,"Canhão da Ponta do Tiro ","",-22.8111171,-43.1767796
1178,"Marco da Cacuia ","Jan/2007",-22.810892,-43.1850891
1179,"Marco do Cocotá","Dez/2007",-22.8023265,-43.1788874
1180,"Iemanjá da Ilha do Governador","",-22.7943465,-43.171043
1181,"Leão do Zumbi","Fev/2015",-22.8194259,-43.1756813
1182,"Gato-Maracajá, Pedra da Onça","",-22.7892674,-43.1614692
1183,"Caramanchão da Praça Manuel Madruga ","",-22.7930719,-43.1842473
1184,"Exú dos Ventos ","Dez/2000",-22.859908,-43.2340757
1185,"Prontidão da Escola do Comando Maior do Exército","Jan/1937",-22.9544511,-43.165489
1186,"Cais do Jardim de Alá","Jan/1938",-22.9830977,-43.2142572
1187,"Caramanchão do Jardim de Alá","Jan/1938",-22.9830977,-43.2142572
1188,"Coreto da Praça José Lorena","Nov/2002",-22.8878638,-43.5776888
1189,"Marco Histórico de Bangú","Dez/2002",-22.8811845,-43.4650791
1190,"Renato Russo ","Jul/2012",-22.8040456,-43.204452
1191,"Aroldo Melodia ","Dez/2011",-22.8139045,-43.1891879
1192,"Carmem Miranda ","Nov/1960",-22.8187729,-43.1915205
1193,"Manuel Bandeira","Dez/2011",-22.8041581,-43.1813893
1194,"Lima Barreto na Ilha do Governador","Jan/1935",-22.7936757,-43.1702527
1195,"Capitão Nelson Megé","Jan/1956",-22.8073476,-43.1792296
1196,"Castro Alves da Ilha do Governador","",-22.7932557,-43.184517
1197,"Chafariz Marco da Ilha do Governador","Abr/1996",-22.8057461,-43.2113042
1198,"Fonte da Mãe d’Água ou Sereia","Jan/1968",-22.8191012,-43.2011538
1199,"Biquinha da Praia da Bica","Jan/1981",-22.8187581,-43.1939356
1201,"Bica da Ânfora ","Dez/2014",-22.8187581,-43.1939356
1202,"Bica da Ânfora da Praia da Bica","Dez/2014",-22.8187581,-43.1939356
1203,"Chafariz da Praça Iaiá Garcia ","Jul/1939",-22.8251999,-43.1698991
1204,"Iemanjá do Posto 1 da Barra da Tijuca","Mar/2016",-23.0142432,-43.2977035
1205,"Cristo Redentor ","Out/1931",-22.9519878,-43.2104148
1206,"Guarda-corpo do Penhasco Cristo Redentor","Jun/1945",-22.9519878,-43.2104148
1207,"Oratório à São Silvestre ","Jan/1910",-22.9452935,-43.2050989
1209,"Banco Recanto das Duas Bicas","",-22.9718999,-43.2533519
1210,"Coreto da Vista Chinesa ","Out/1903",-22.9732327,-43.2495884
1211,"Guarda-corpo da Vista Chinesa","",-22.9732327,-43.2495884
1213,"Frades das Três Bicas ","",-22.9727347,-43.2544389
1214,"Mesa do Imperador","Out/1903",-22.9705364,-43.2580117
1215,"Amurada da Mesa do Imperador","",-22.9705364,-43.2580117
1216,"Guarda-corpo I da Mesa do Imperador","",-22.9705364,-43.2580117
1217,"Guarda-corpo II da Mesa do Imperador","",-22.9706268,-43.2579862
1218,"Frades I da Mesa do Imperador","",-22.9705364,-43.2580117
1219,"Frades II da Mesa da Imperador","",-22.9705364,-43.2580117
1222,"Portão Monumental da Floresta da Tijuca","Jul/1944",-22.9608976,-43.2742495
1223,"Ponte de Job de Alcântara ","Jan/1865",-22.9590877,-43.27734
1224,"Painel do Mapa da Floresta da Tijuca","Jan/1946",-22.959042,-43.2778272
1225,"Fonte do Largo da Cascatinha ","Jan/1944",-22.959042,-43.2778272
1226,"Banco do Largo da Cascatinha","Jul/1944",-22.9590497,-43.2775531
1227,"Marco do Recanto dos Pintores ","Ago/1969",-22.9558613,-43.2808264
1228,"O Escravo ","Jul/2001",-22.9560201,-43.2801111
1229,"Bacia do Centro dos Visitantes","Jan/1944",-22.9559472,-43.2802195
1230,"Ponte da Capela Mayrink","",-22.9569879,-43.277932
1231,"Campanário da Capela Mayrink","Jul/1944",-22.9569879,-43.277932
1232,"Banco do Jardim da Capela Mayrink","Jul/1944",-22.9581183,-43.2777882
1233,"Amurada do Jardim da Capela Mayrink ","Jul/1944",-22.9581183,-43.2777882
1234,"Obelisco do Largo do Bom Retiro","Ago/1928",-22.9473838,-43.2913253
1235,"Galpão do Largo do Bom Retiro","",-22.9473793,-43.2914156
1236,"Cruzeiro da Floresta da Tijuca","",-22.9473838,-43.2913253
1237,"Marco da Alameda João Maggessi","",-22.955202,-43.2871856
1238,"Marco do Lago das Fadas","Jan/1955",-22.9524045,-43.2838275
1239,"Portão do Açude Solidão","Jul/1944",-22.9626781,-43.2890318
1240,"Índio do Açude Solidão","",-22.9626135,-43.2890959
1241,"Índia do Açude Solidão","",-22.9626135,-43.2890959
1242,"Gradil do Açude Solidão","Set/1880",-22.9625004,-43.289315
1243,"Marco do Açude Solidão","Jul/1944",-22.9621642,-43.2889595
1244,"Ponte I do Açude Solidão","",-22.9624144,-43.2890552
1245,"Ponte de Madeira do Açude Solidão","",-22.9619269,-43.2887996
1246,"Escadaria do Mirante Excelsior","Jan/1922",-22.9473838,-43.2913253
1247,"Guarda-corpo do Largo do Mirante Excelsior ","",-22.9473838,-43.2913253
1248,"Ponte do Rio das Almas","",-22.9539958,-43.2912059
1249,"Ponte Pênsil da Floresta da Tijuca","Jan/1996",-22.9540438,-43.291291
1250,"Marco da Pedra Bonita","Nov/1949",-22.9791671,-43.2763825
1251,"Banco de Pedra da Estrada do Joá","",-23.0057938,-43.2830403
1252,"Frades da Estrada das Canoas ","",-22.9886199,-43.2691661
1253,"Marco Rodoviário Estrada do Joá I","",-23.0079623,-43.2881145
1254,"Marco Rodoviário Estrada do Joá II","",-23.008243,-43.2929639
1255,"Marco Rodoviário da Estrada das Paineiras","",-22.9485489,-43.2113594
1256,"Marco Rodoviário I da Estrada da Vista Chinesa","",-22.967669,-43.2481483
1257,"Marco Rodoviário da Rua Uranos","",-22.8588342,-43.2584383
1258,"Marco Rodoviário de Padre Miguel","",-22.8794648,-43.4517282
1259,"Marco Rodoviário do Campo de Marte ","",-22.8762359,-43.4309844
1260,"Marco Rodoviário I da Avenida Cesário de Melo","",-22.893428,-43.5400426
1261,"Marco Rodoviário da Avenida Joaquim Magalhães","",-22.8913155,-43.5319104
1262,"Marco Rodoviário do Largo da Maçonaria ","",-22.8884955,,-43.5600548
1263,"Marco Rodoviário II da Avenida Cesário de Melo ","",-22.8970812,-43.5480029
1264,"Marco Rodoviário III de Avenida Cesário de Melo","",-22.9118104,-43.5920705
1265,"Marco Rodoviário da Avenida Artur Rios","",-22.902212,-43.5473818
1266,"Marco Rodoviário da Estrada do Mato Alto I","",-22.9610835,-43.5823956
1267,"Marco Rodoviário da Estrada do Mato Alto II","",-22.9663107,-43.5897904
1268,"Marco Rodoviário da Estrada do Mato Alto III","",-22.9745056,-43.5893829
1269,"Marco Rodoviário da Estrada do Cabuçu ","",-22.9196437,-43.5296899
1270,"Marco Rodoviário I da Estrada de Sepetiba","",-22.9479046,-43.6791435
1271,"Marco Rodoviário II da Estrada de Sepetiba","",-22.9406891,-43.6744281
1272,"Marco Rodoviário III da Estrada de Sepetiba","",-22.9559874,-43.6882497
1273,"Marco Rodoviário I da Estrada da Matriz","",-22.9939436,-43.593836
1275,"Marco Rodoviário II da Estrada da Matriz","",-22.9871724,-43.5748114
1276,"Marco Rodoviário Estrada Velha de Barra de Guaratiba","",-23.0679506,-43.5675252
1277,"Marco Rodoviário da Estrada do Morro Cavado ","",-22.9803581,-43.5705914
1278,"Marco Rodoviário II da Estrada da Vista Chinesa","",-22.9681132,-43.2607773
1279,"Marco Rodoviário III da Estrada da Vista Chinesa","",-22.9735501,-43.2751241
1280,"Bica do Cazuza","Jun/2011",-22.9551504,-43.2340416
1281,"Lago do Quebra (Cachoeira do Horto)","",-22.965627,-43.2461916
1282,"Cascata do Quebra (Cachoeira do Horto)","",-22.965627,-43.2461916
1283,"Fonte das Duas Bicas","",-22.9720538,-43.2531252
1284,"Fonte Medusa da Vista Chinesa","",-22.9733015,-43.249999
1285,"Fonte das Três Bicas","",-22.9727244,-43.2544725
1286,"Fonte do Imperador","",-22.9703954,-43.2580519
1288,"Fonte de Pedra I do Parque Nacional da Tijuca","",-22.9682595,-43.26232
1289,"Fonte de Pedra II do Parque Nacional da Tijuca","",-22.9667237,-43.2592581
1290,"Ponte de Pedra do Parque Nacional da Tijuca","Jan/1864",-22.9667237,-43.2592581
1292,"Fonte do Vaso do Parque Nacional da Tijuca","",-22.9745976,-43.2767128
1293,"Fonte de Azulejos I da Cascatinha","Jul/1944",-22.9596553,-43.2763051
1294,"Fonte do Vaso do Largo da Cascatinha","</strong></br> Autor: <strong>",-22.9590168,-43.2777318
1295,"Lago do Recanto dos Pintores","Jan/1969",-22.9559025,-43.2808614
1297,"Lago das Fadas","",-22.9524045,-43.2838275
1298,"Fonte do Lago das Fadas","Jan/1944",-22.9524045,-43.283827
1299,"Fonte Midosi","",-22.9498244,-43.2859364
1300,"Fonte do Largo do Bom Retiro","Jul/1944",-22.9473793,-43.2914156
1301,"Cascata de Rocaille da Floresta da Tijuca","",-22.9540438,-43.2912919
1303,"Fonte Wallace da Floresta da Tijuca","",-22.9553992,-43.2852251
1304,"Fonte da Hipica","",-22.9579814,-43.284411
1305,"Lago do Açude da Solidão","Jul/1944",-22.961901,-43.2888315
1306,"Fonte do Joá","",-23.0035945,-43.2797708
1307,"Sebastião Leme ","Out/2011",-22.9520804,-43.211276
1308,"Heitor da Silva Costa ","Out/2011",-22.9520804,-43.211276
1309,"Ao Barão de Taunay ","Ago/1928",-22.9590168,-43.2777318
1310,"Barão d’Escragnolle ","Ago/1928",-22.9551364,-43.2865952
1311,"Mercedes Baptista","Out/2016",-22.8975282,-43.1842259
1312,"À Guignard","Set/1996",-22.9074447,-43.1809263
1313,"Banco da Fonte do Chororó","",-22.9408583,-43.2104137
1314,"Brigadeiro Eduardo Gomes ","Set/1996",-22.9152736,-43.174109
1315,"Marechal Mascarenhas de Morais","Nov/1969",-22.9161781,-43.1741689
1316,"À Estácio de Sá ","Mar/1973",-22.9399113,-43.1700279
1317,"À Carlota Macedo Soares ","Jan/2005",-22.9357553,-43.1699748
1318,"Chafariz Cascata do Museu de Arte Moderna","",-22.9135167,-43.172015
1319,"Chafariz de Laminas Verticais do Museu de Arte Moderna","",-22.9122404,-43.1719337
1320,"Chafariz Interno do Museu de Arte Moderna","</strong></br> Autor: <strong>",-22.9135315,-43.1722762
1321,"Lago de Plantas Aquáticas do Museu de Arte Moderna","",-22.9135315,-43.1722762
1322,"Lago do Restaurante do Parque do Flamengo","Jan/1979",-22.9371691,-43.1698803
1323,"Lago de Nautimodelismo do Parque do Flamengo","Abr/1965",-22.9267835,-43.1708705
1324,"Coreto Estrela","Abr/1965",-22.9258627,-43.1712069
1325,"Aos Mortos da II Guerra Mundial ","Ago/1959",-22.9162731,-43.1741866
1326,"Bloco Monolítico ","Jan/1997",-22.9144254,-43.1717319
1327,"Espaço Circular e Cubo Virtual ","Jan/1987",-22.9144254,-43.1717319
1328,"Chapa vertical ","Jan/2000",-22.9144254,-43.1717319
1329,"Passarela Paulo Bittencourt ","Set/1967",-22.9121499,-43.1717384
1330,"Tartaruga do Museu de Arte Modena","Jan/2005",-22.9135315,-43.1722762
1331,"Jardim de Pedras do Museu de Arte Moderna","",-22.9144162,-43.1715777
1332,"Shit Happens, conhecida como Rolo de Papel","Jan/2014",-22.9144061,-43.1713777
1333,"Harmonia","Jul/1992",-22.9220198,-43.1706281
1334,"Ponte do Restaurante do Parque do Flamengo","Jan/1965",-22.9372229,,-43.1705922
1335,"Passarela Fernando Morcorvo","",-22.9325742,-43.1734772
1336,"Passarela Aércio Sampaio","",-22.9267375,-43.1723326
1337,"Passarela General Caiado de Castro","",-22.9203977,-43.1743504
1338,"Passarela Irineu Marinho","",-22.9195277,-43.1727094
1339,"Passarela Coronel Americo Fontinelle","Jan/1970",-22.910207,-43.1683419
1340,"Marco da Eco 92 ","Jan/1992",-22.9313339,-43.1723108
1341,"Marco Rodoviário da Praça Santa Cruz","",-22.9360102,-43.667159
1342,"Concha Acústica do Parque do Flamengo","Abr/1965",-22.9224114,-43.169679
1343,"Mastro da Batalha ","",-22.9264322,-43.1707351
1344,"Guarda-corpo da Cidade das Crianças ","Out/1965",-22.9266861,-43.1726082
1345,"Labirinto da Cidade das Crianças ","Out/1965",-22.9289858,-43.1732446
1346,"Labirinto II do Morro da Viúva","Abr/1965",-22.9425921,-43.1741775
1347,"Equilíbrio I do Parque do Flamengo","Out/1965",-22.9249795,-43.1701394
1348,"Teatrinho do Morro da Viúva ","Jan/1964",-22.9425921,-43.1741775
1349,"Pista de Aeromodelismo do Parque do Flamengo","Ago/1963",-22.9188888,-43.1728934
1350,"Lampadário ( Poste) do Parque do Flamengo","Dez/1976",-22.9187866,-43.1728934
1351,"Escultura da Praia do Flamengo","Mar/2011",-22.9344819,-43.1742537
1352,"Oratório à São Jorge de Rocha Miranda","",-22.8566766,-43.3485529
1354,"Fonte do Humaitá","",-22.9555439,-43.2917618
1355,"Fonte do Jardim da Capela Mayrink","Jan/1944",-22.9581183,-43.2777882
1356,"Marco Rodoviário IV da Estrada da Vista Chinesa","",-22.9716182,-43.278314
1357,"Moacir de Almeida - depósito","Mar/1955",-22.906689,-43.197172
1358,"Assis Chateaubriand - depósito","Mar/1933",-22.906689,-43.197172
1359,"Martins Fontes - depósito ","Jul/1976",-22.906689,-43.197172
1360,"Almirante Visconde de Inhaúma - depósito","Abr/2012",-22.906689,-43.197172
1361,"Ataulfo de Paiva - depósito","",-22.906689,-43.197172
1362,"Marechal Eurico Dutra","Abr/1972",-22.906689,-43.197172
1363,"Relógio do Méier II","Nov/2004",-22.9001852,-43.275483
1364,"Esculápio","",-22.906689,-43.197172
1365,"Vaso do Parque Noronha Santos","Jan/1965",-22.906689,-43.197172
1366,"Oitenta","Ago/2009",-22.906689,-43.197172
1367,"Abraço - depósito","",-22.906689,-43.197172
1368,"Fonte da Sereia (original) ","Jan/1906",-22.906689,-43.197172
1369,"Escultura Oscar Nieweyer. II ","Mar/2002",-22.906689,-43.197172
1370,"Escultura Oscar Niemeyer III -","Mar/2002",-22.906689,-43.197172
1371,"Escultura Oscar Nieweyer IV ","Mar/2002",-22.906689,-43.197172
1372,"Fonte dos Trapicheiros","Fev/1904",-22.9329182,-43.2339599
1373,"Chafariz do Campo de São Cristovão - depósito","Nov/1906",-22.906689,-43.197172
1374,"Fonte Wallace da Praça João Esberard","Jan/1917",-22.905778,-43.562265
1376,"Bica da Mulata de Belford Roxo - Melancolia","Dez/1995",-22.7646205,-43.3999429
1377,"Ao Infante Dom Henrique ( desaparecido)","Ago/1960",-22.9140385,-43.1745412
1378,"Chafariz da Praça Varnhagem - depósito","Jan/1965",-22.906689,-43.197172
1381,"Chico Xavier - depósito","Jan/1997",-22.906689,-43.197172
1384,"Castelo do Parque Peter Pan","Jan/1974",-22.9832874,-43.192088
1385,"A Juventude, a Cultura e ao Esporte ","Mar/1974",-22.906689,-43.197172
1386,"Escultura sem titulo ","Jan/1997",-22.906689,-43.197172
1387,"Aspersor de Bangú","Dez/2002",-22.875579,-43.4648475
1389,"Rodolfo de Amoêdo","Jan/1940",-22.9208183,-43.1745739
1390,"Marechal Mascarenhas de Morais em Bonsucesso.","Fev/1946",-22.8663187,-43.2552942
1391,"Fonte do Menino ( original) - depósito","Jan/1841",-22.906689,-43.197172
1392,"Quorus ","Mar/1979",-22.972386,-43.2029359
1393,"Relógio da Taquara - depósito","Abr/2000",-22.906689,-43.197172
1394,"Verticalidade ","Mar/1979",-22.9725107,-43.2028513
1395,"Pixinguinha em Ramos","Nov/2016",-22.8486422,-43.261363
1396,"Chafariz da Avenida Brigadeiro Trompowsk - depósito","Set/1965",-22.906689,-43.197172
1397,"Fonte Ciborium ","",-22.906689,-43.197172
1399,"Del Prete - depósito","Ago/1930",-22.906689,-43.197172
1400,"Busto Não Identificado I - depósito","",-22.906689,-43.197172
1401,"Busto Não Identificado II - depósito","",-22.906689,-43.197172
1402,"Busto Não Identificado III - depósito","",-22.9067928,-43.1973384
1404,"Barão de Mauá na Rua da Candelária","Jun/2015",-22.9015367,-43.1771063
1405,"Cabeça Não Identificada I - depósito","",-22.906689,-43.197172
1406,"Cabeça Não Identificada II - depósito","",-22.906689,-43.197172
1408,"Cabeça Não Identificada IV - depósito","",-22.906689,-43.197172
1409,"Cabeça Não Identificada V - depósito","",-22.906689,-43.197172
1411,"Nincho da Quinta da Boa Vista","Jan/1876",-22.9064067,-43.2264306
1414,"Marco ao Cooperativismo","",-22.8922507,-43.2398827
1415,"Amurada do Terraço da Quinta da Boa Vista","Out/1910",-22.9063029,-43.2262688
1416,"Chaminé do Catumbi","",-22.9179206,-43.1942718
1417,"Embocadura do Túnel do Pasmado","Jan/1952",-22.9511271,-43.1799119
1418,"Amurada da Rua Portugal, ou da Urca","Jan/1922",-22.9509966,-43.1681725
1419,"Marco em Tributo ao Archer e Escragnolle","Set/1959",-22.9559025,-43.2808614
1420,"Amurada do Sítio Midosi","",-22.9498244,-43.2859364
1422,"Rocaile do Recanto do Pintores","",-22.9559025,-43.2808614
1423,"Vaso do Portão do Açude Solidão","Jan/1946",-22.9626781,-43.2890318
1424,"Ponte II do Açude Solidão","",-22.9626781,-43.2890318
1425,"Fonte da Ponte Job de Alcântara","Jul/1944",-22.9590877,-43.27734
1426,"Fonte abaixo da Ponte Job de Alcântara","Jan/1944",-22.9590877,-43.27734
1427,"Cazuza ","Mar/1992",-22.9861886,-43.2284939
1429,"Escultura Oscar Nieweyer III ","Mar/2002",-22.906689,-43.197172
1430,"Piso de Paralelepípedo da Rua Ribeira de Almeida","",-22.9338197,-43.1863322
1431,"Marco Rodoviário IV de Avenida Cesário de Melo","",-22.9163586,-43.6210056
1432,"Marco Rodoviário da Rua Soldado Elizeu Hipólito","",-23.0003047,-43.6316663
1433,"Marco Rodoviário da Estrada do Redentor I","",-22.9572097,-43.2538253
1434,"Marco Rodoviário da Estrada do Redentor II","",-22.9569373,-43.2480306
1437,"Fonte do Golfinho - Símbolo da Cidade","",-22.9784155,-43.2448997
1438,"Oswaldo Cruz ","Jul/2012",-22.8696271,-43.3499448
1439,"Marechal Hermes","Jan/1955",-22.8610039,-43.3713826
1440,"Bento Ribeiro","Out/2012",-22.8613278,-43.3635353
1441,"Coreto de Marechal Hermes","Jan/1954",-22.8639671,-43.3728895
1443,"Artur Rios","",-22.9025169,-43.550098
1444,"À Maria do Carmo Nabuco","Dez/2016",-22.9510326,-43.1994235
1445,"Marco Rodoviário da Rua do Fragoso","",-22.9755412,-43.636975
1446,"Cruzeiro do Morro do Mirante ","Dez/1967",-22.9209397,-43.6864896
1447,"Kintetic, a Pira do Povo","Set/2016",-22.9003319,-43.1765186
1448,"Chafariz da Pira do Povo","Ago/2016",-22.9003319,-43.1765186
1449,"Nelson Rodrigues","Dez/2016",-22.9658391,-43.18142
1450,"Piso de Pé de Moleque na Rua do Paraíso","",-22.9135278,-43.1941269
1452,"Reflexão Rio - depósito","Abr/2007",-22.906689,-43.197172
1454,"Pinças","",-22.861709,-43.3467425
1455,"Coreto da Praça Belmonte","",-22.848337,-43.2685425
1456,"Painel Elementos da Natureza","Set/2015",-22.906689,-43.197172
1457,"Guarda Corpo do Terraço do Passeio Publico","</strong></br> Autor: <strong>",-22.9130414,-43.1772381
1458,"Paul Harris em Campo Grande","Nov/1967",-22.9003452,-43.5669476
1459,"Oratório de Nossa Senhora Aparecida","Out/2017",-22.9805282,-43.218184
1460,"Marco da União Espiritual","Abr/1957",-22.912291,-43.1765424
1463,"Gruta da Imprensa","Jan/1922",-22.99915,-43.2522072
1464,"Mastro do Mirante do Pasmado - retirado","Mar/1972",-22.9514848,-43.1787674
1465,"Escadaria do Morro da Conceição","Set/2016",-22.8975585,-43.1808047
1466,"Marco da Praça João Esberard","",-22.9056305,-43.561315
1467,"Marco do Caminho de Santiago","Out/2019",-22.9899039,-43.1914569
1468,"Replica do Cristo Redentor","Jun/2017",-22.9642701,-43.2174027
1469,"Carlson Gracie","Ago/2019",-22.9679125,-43.1880767
1470,"Escultura Monumental para a Copa do Mundo Rio 2014","Mar/2020",-22.9725107,-43.2028513
1471,"Canhão Revolver Hotchkis","",-22.9799141,-43.2418108
1472,"Pedro Fernandes I","Mai/1974",-22.8306833,-43.3159031
1473,"Portão do Parque Recanto de Trovador","",-22.9168873,-43.2602288
1474,"Santos Dumont em Santa Cruz","Out/1961",-22.9176328,-43.6832614
1475,"A Artur Xexeu","Set/2021",-22.9674093,-43.1896705
1476,"Navegador Russo - Faddei Bellingshausen","Set/2021",-22.915713,-43.1659495
1477,"Homens de Fibra","Ago/2021",-22.8420455,-43.2777141
1478,"Frei Heliodoro Fernandez Alves","Mar/2022",,
1479,"Marielle Franco","Jul/2022",-22.9061596,-43.1763168
1480,"Marco Memorial as Vitimas do Holocausto","Dez/2022",-22.9515051,-43.1786409
1481,"À Copa de 70","Jan/1970",,
